portname;code;prttype;locprecision;latitude;longitude;iso3;iso3_op;country
Watsi-Genge;;River;unknown;-0.9456;20.62966;COD;COD;Democratic Republic of the Congo
Charlotte (Skidegate);CASKI;Sea;accurate;53.24742;-132.00969;CAN;CAN;Canada
Homer;USHOI;Sea;accurate;59.60159;-151.41553;;USA;
Hartsdale;USHAS;Sea;accurate;40.7061;-74.0021;;USA;
Killingholme;GBKGH;Sea;accurate;53.64561;-0.21512;;GBR;
Shoreham;GBSHO;Sea;accurate;50.83232;-0.26934;GBR;GBR;U.K. of Great Britain and Northern Ireland
Southend;GBSND;Sea;accurate;51.53415;0.7155;GBR;GBR;U.K. of Great Britain and Northern Ireland
Santa Fe;ARSFN;River;accurate;-31.65014;-60.69712;ARG;ARG;Argentina
Punta De Palmas;VEPLV;Sea;accurate;10.4409;-71.63472;VEN;VEN;Venezuela
Moin Bay;CRMOB;Sea;accurate;10.00433;-83.07669;CRI;CRI;Costa Rica
Canaport;CACPT;Sea;accurate;45.2085;-65.98286;CAN;CAN;Canada
Winslow;USWSE;Sea;accurate;47.62285;-122.51324;USA;USA;United States of America
West Foreland;USWFO;Sea;accurate;60.7133;-151.71198;;USA;
Redwood City;USRWC;Sea;accurate;37.5132;-122.20405;USA;USA;United States of America
Shawano;USSWS;Sea;accurate;29.24043;-89.3605;USA;USA;United States of America
Mars;USXJB;Sea;approximate;29.50305;-91.8058;USA;USA;United States of America
Sullom Voe;GBSUL;Sea;accurate;60.45831;-1.29003;GBR;GBR;U.K. of Great Britain and Northern Ireland
Salina;ITSLA;Sea;accurate;38.5593;14.87226;;ITA;
Eleusis;GREEU;Sea;accurate;38.04274;23.51074;GRC;GRC;Greece
Syros (Syra);GRJSY;Sea;accurate;37.43767;24.94032;GRC;GRC;Greece
Cebu;;Sea;unknown;10.62832;124.40972;PHL;PHL;Philippines
Coco Grove Nature Resort;;Sea;accurate;10.61768;124.2838;PHL;PHL;Philippines
Pointe Des Galets;REPDG;Sea;accurate;-20.93108;55.31133;REU;REU;Réunion
Sulina (Port Et Zone Franche);ROSUL;Sea;accurate;45.15849;29.66218;ROU;ROU;Romania
Damman;SADMN;Sea;accurate;26.48684;50.19733;SAU;SAU;Saudi Arabia
Tijuana;MXTIJ;Sea;approximate;32.50821;-117.12305;;MEX;
Jose Ignacio Terminal;UYJIT;Sea;approximate;-34.84588;-54.63312;URY;URY;Uruguay
Khark Island;IRKHK;Sea;accurate;29.21619;50.33049;IRN;IRN;Iran  (Islamic Republic of)
Bandar Mahshahr;IRMRX;River;accurate;30.46914;49.17771;IRN;IRN;Iran  (Islamic Republic of)
Porto Foxi (Sarroch);ITPFX;Sea;accurate;39.09045;9.01368;ITA;ITA;Italy
Rharous;;River;accurate;16.88259;-1.92331;MLI;MLI;Mali
Ambohitsara;;River;accurate;-20.86592;48.46241;MDG;MDG;Madagascar
Pomala;IDPUM;Sea;accurate;-4.1828;121.59489;IDN;IDN;Indonesia
Telok Ayer;IDTKA;Unknown;accurate;-0.76919;109.57272;IDN;IDN;Indonesia
Lifake;;River;accurate;1.06498;22.1408;COD;COD;Democratic Republic of the Congo
Escravos;NGESC;Unknown;accurate;5.61173;5.20625;NGA;;Nigeria
My Tho;VNMUT;River;accurate;10.34402;106.3285;VNM;VNM;Viet Nam
Yafala;;River;unknown;-1.37229;22.11768;COD;COD;Democratic Republic of the Congo
Gutthom;;River;accurate;6.48444;31.33383;SSD;SSD;South Sudan
Vum;;River;accurate;-3.82254;18.92355;COD;COD;Democratic Republic of the Congo
Isokolokoto;;River;approximate;0.46143;20.97019;COD;COD;Democratic Republic of the Congo
Koko;NGKOK;Unknown;accurate;5.99881;5.45875;NGA;NGA;Nigeria
Pugwash;CAPUG;Sea;accurate;45.84869;-63.66423;CAN;CAN;Canada
Liege (Luik);BELGG;Sea;accurate;50.65459;5.6324;BEL;BEL;Belgium
Naha;JPNAH;Sea;approximate;26.2447;127.69245;JPN;JPN;Japan
Cossack Pioneer;;Sea;accurate;-20.6756;116.69787;AUS;AUS;Australia
Des Plaines;USDES;Sea;accurate;29.93482;-90.36439;USA;USA;United States of America
Oakham Ness;GBOAK;Sea;accurate;51.42122;0.6342;GBR;GBR;U.K. of Great Britain and Northern Ireland
Hunterston;GBHST;Sea;accurate;55.74505;-4.86915;GBR;GBR;U.K. of Great Britain and Northern Ireland
Faslane;GBFAS;Sea;accurate;56.06673;-4.81973;GBR;GBR;U.K. of Great Britain and Northern Ireland
Palma Mallorca;ESPMI;Sea;accurate;39.56616;2.6445;ESP;ESP;Spain
Moji;JPMOJ;Sea;accurate;33.95201;130.96633;JPN;JPN;Japan
Sendai;;Sea;accurate;38.27451;141.00557;JPN;JPN;Japan
Port Of Aqtau (Aktau);;Sea;accurate;43.60967;51.22023;KAZ;KAZ;Kazakhstan
Bassein;MMBSX;River;accurate;16.78112;94.73082;MMR;MMR;Myanmar
La Palma;PAPLP;Sea;accurate;8.40629;-78.14191;PAN;PAN;Panama
Lajes;PTLAJ;Sea;accurate;39.37902;-31.1711;PRT;PRT;Azores Islands
Mesaieed;QAUMS;Unknown;accurate;24.91738;51.56731;QAT;QAT;Qatar
Punta Colorada;ARPCO;Sea;accurate;-41.69762;-65.03439;ARG;ARG;Argentina
South Riding Point;BSSRP;Sea;accurate;26.62642;-78.23165;BHS;BHS;Bahamas
Woodlands;SGWDL;Sea;accurate;1.45201;103.77974;;SGP;
Aioi;JPAIO;Sea;accurate;34.78907;134.46388;JPN;JPN;Japan
Mukho;KRMUK;Sea;accurate;37.55231;129.11646;KOR;KOR;Republic of Korea
Arman;RUARM;Sea;accurate;59.54024;150.77662;RUS;RUS;Russian Federation
Tuxpan;MXTUX;Sea;accurate;20.94442;-97.39383;MEX;MEX;Mexico
Puerto Miranda / Maracaibo L.;VEMIV;Sea;accurate;10.76144;-71.5519;;VEN;
La Salina / Maracaibo L;VELSV;Sea;accurate;10.37679;-71.4548;;VEN;
Moulmein;MMMNU;Sea;accurate;16.49322;97.6175;;MMR;
Sidi Kerir;EGSKT;Sea;accurate;31.05359;29.67018;;EGY;
Stignaesvaerkets Havn;DKSTG;Sea;accurate;55.20852;11.25443;DNK;DNK;Denmark
Inkoo;FIINK;Sea;accurate;60.04148;24.00623;FIN;FIN;Finland
Crooked Island;BSCRI;Sea;approximate;22.75116;-74.18962;BHS;BHS;Bahamas
Barahona;DOBRX;Sea;accurate;18.21611;-71.08721;DOM;DOM;Dominican Republic
Bandar Abbas;IRBND;Sea;accurate;27.14681;56.20611;IRN;IRN,AFG;Iran  (Islamic Republic of)
Forno;BRFNO;Sea;accurate;-22.96957;-42.01826;BRA;BRA;Brazil
Kalecik;CYKAL;Sea;accurate;35.32798;33.99319;CYP;CYP;Cyprus
El Iskandariya;EGALY;Sea;accurate;31.16936;29.86204;;EGY;
Ras Shukheir;EGRSH;Sea;accurate;28.13602;33.27519;EGY;EGY;Egypt
Lingah;IRLIN;Sea;accurate;26.55452;54.89053;;IRN;
Basrah;IQBSR;River;accurate;30.51164;47.84923;IRQ;IRQ;Iraq
Hibiki;JPHBK;Sea;accurate;33.93027;130.77865;JPN;JPN;Japan
Yawata;JPYWT;Sea;accurate;33.88705;130.78127;JPN;JPN;Japan
Juaymah Terminal;SAJUT;Sea;accurate;26.79268;50.01443;SAU;SAU;Saudi Arabia
Tembladora;TTTEM;Sea;accurate;10.67923;-61.56864;TTO;TTO;Trinidad and Tobago
Haydarpasa;TRHAY;Sea;accurate;41.00242;29.01452;;TUR;
Foca;TRFOC;Sea;accurate;38.66761;26.7521;;TUR;
St Thomas Island;VISTT;Sea;accurate;18.33887;-64.93865;VIR;VIR;United States Virgin Islands
Barcadera;AWBAR;Sea;accurate;12.48094;-69.99846;ABW;ABW;Aruba
Bullen Bay;ANBUB;Sea;accurate;12.19427;-69.0259;ANT;ANT;Netherlands Antilles
Zayed;AEMZD;Sea;accurate;24.51602;54.37681;ARE;ARE;United Arab Emirates
Barbuda;AGBBQ;Sea;accurate;17.64144;-61.82788;ATG;ATG;Antigua and Barbuda
Jiangyin;CNJIA;Sea;accurate;31.92039;120.17442;CHN;CHN;China
Sittwe;MMAKY;Sea;accurate;20.14001;92.90128;MMR;MMR;Myanmar
Pointe A La Hache;USPHC;Sea;accurate;29.57611;-89.79325;USA;USA;United States of America
Port Of Semey;;Unknown;accurate;50.43993;80.20868;KAZ;KAZ;Kazakhstan
Antwerp;;Unknown;accurate;51.24332;4.4174;BEL;BEL;Belgium
Navarino;GRNAV;Sea;accurate;36.91472;21.69516;GRC;GRC;Greece
Port Of Atyrau;;Sea;accurate;47.07208;51.86886;KAZ;KAZ;Kazakhstan
Malingu;;River;unknown;-5.87762;16.58492;COD;COD;Democratic Republic of the Congo
Bolafa;;River;accurate;1.53925;22.1123;COD;COD;Democratic Republic of the Congo
Malta (Valetta);MTMLA;Sea;accurate;35.89425;14.51314;MLT;MLT;Malta
N'Gi;;River;accurate;-4.41232;17.15382;COD;COD;Democratic Republic of the Congo
Za'Farana;;Sea;accurate;29.11107;32.66471;EGY;EGY;Egypt
Saleologa;;Sea;accurate;-13.74475;-172.21695;WSM;WSM;Samoa
Lilo;;River;approximate;-0.61864;25.4275;COD;COD;Democratic Republic of the Congo
Bangu;;River;approximate;-0.24726;19.18075;COD;COD;Democratic Republic of the Congo
Aola Bay;SBAOB;Unknown;accurate;-9.53525;160.49173;;SLB;
Walton;CAWTN;Sea;accurate;45.23111;-64.00853;CAN;CAN;Canada
Northville (Riverhead);USNVR;Sea;accurate;40.91828;-72.65551;USA;USA;United States of America
Felton;;Sea;approximate;20.72725;-75.6073;CUB;;Cuba
Tanamo;CUTAN;Sea;accurate;20.67864;-75.33573;CUB;CUB;Cuba
Fraser Mills;CAFRM;Sea;accurate;49.19981;-122.91238;CAN;CAN;Canada
Berville;FRBEV;Sea;accurate;49.43485;0.3606;FRA;FRA;France
Bagotville;CABGT;Sea;accurate;48.34383;-70.87961;CAN;CAN;Canada
Norsworthy;USNSW;Sea;approximate;29.74113;-95.1928;USA;USA;United States of America
Hamaroy;NOHMY;Sea;approximate;68.08477;15.63392;NOR;NOR;Norway
Melilli;ITMEL;Sea;accurate;37.10968;15.25179;ITA;ITA;Italy
Studstrupvaerkets Havn;DKSSV;Sea;accurate;56.24891;10.34783;DNK;DNK;Denmark
Bugo;;Sea;accurate;8.50849;124.75312;;PHL;
Nowy Port;PLNOW;Sea;accurate;54.40853;18.65782;POL;POL;Poland
Thira;GRJTR;Sea;accurate;36.3861;25.43119;GRC;GRC;Greece
Mutsuogawara;;Sea;accurate;40.96875;141.38524;JPN;JPN;Japan
Ras Laffan;;Sea;accurate;25.91414;51.59255;;QAT;
Shortland Harbour;SBSHH;Unknown;approximate;-7.08892;155.86379;;SLB;
Hera fishing port;;Sea;accurate;-8.53445;125.68134;TLS;TLS;Timor-Leste
Thi Nai;;Sea;accurate;13.7813;109.22867;VNM;VNM;Viet Nam
Ras Zubbaya;AEDUY;Unknown;accurate;24.32187;54.133;ARE;ARE;United Arab Emirates
New Holland;GBNHO;Sea;accurate;53.70469;-0.36337;GBR;GBR;U.K. of Great Britain and Northern Ireland
Djerba;TNDJE;Sea;accurate;33.88626;10.85775;TUN;TUN;Tunisia
Talca;CLTLX;Sea;accurate;-36.7283;-73.10178;CHL;CHL;Chile
Kuantan;MYKUA;Sea;accurate;3.97809;103.42386;MYS;MYS;Malaysia
Kerteh Terminal;MYKET;Sea;accurate;4.58999;103.45553;MYS;MYS;Malaysia
Mokpo;KRMOK;Sea;accurate;34.78086;126.38245;KOR;KOR;Republic of Korea
Port Kelang;MYPKG;Sea;accurate;3.02802;101.36368;MYS;MYS;Malaysia
Guaranao Bay;VEGUB;Sea;accurate;11.66943;-70.21381;VEN;VEN;Venezuela
Henjam;IRHEJ;Sea;accurate;26.68227;55.89432;;IRN;
Okayama;JPOKJ;Sea;accurate;34.604;133.9644;JPN;JPN;Japan
Tianjinxingang;CNTXG;Sea;accurate;39.08764;117.23743;CHN;CHN;China
Fao;IQFAO;River;accurate;29.97458;48.483;IRQ;IRQ;Iraq
Acapulco;MXACA;Sea;accurate;16.84868;-99.90401;MEX;MEX;Mexico
Banten;IDCIG;Sea;accurate;-6.01375;105.95816;IDN;IDN;Indonesia
Ain Sukhna;EGAIS;Sea;accurate;29.6541;32.34742;EGY;EGY;Egypt
Rothesay;GBRAY;Sea;accurate;55.83818;-5.05427;GBR;GBR;U.K. of Great Britain and Northern Ireland
Port Huron;USPHN;Lake;accurate;42.9712;-82.42034;USA;CAN;United States of America
Patterson;USPAN;Sea;accurate;48.12044;-123.43221;;USA;
Stanlow;GBSOW;Sea;accurate;53.28606;-2.83623;GBR;GBR;U.K. of Great Britain and Northern Ireland
Porvoo;FIPRV;Sea;accurate;60.38291;25.67178;FIN;FIN;Finland
Misumi;JPMIS;Sea;accurate;32.60706;130.47129;JPN;JPN;Japan
Oshima;JPOSM;Sea;approximate;34.74983;139.3575;JPN;JPN;Japan
Nagoya;JPNGO;Sea;accurate;35.07877;136.86533;JPN;JPN;Japan
Dhuba;SADHU;Sea;accurate;26.25249;36.44388;SAU;SAU;Saudi Arabia
La Pampilla;PELPP;Sea;accurate;-11.95655;-77.13473;PER;PER;Peru
Providenciales;TCPLS;Sea;accurate;21.81422;-72.14035;TCA;TCA;Turks and Caicos islands
Trinidad;BOTDD;Sea;accurate;10.65208;-61.51813;TTO;TTO;Trinidad and Tobago
Tutunciftlik;TRTUT;Sea;accurate;40.74509;29.77666;;TUR;
Gokova;TRGKV;Sea;accurate;37.05086;28.3247;;TUR;
Gulluk;TRGUL;Sea;accurate;37.22763;27.58976;TUR;TUR;Turkey
Haimen;CNHME;Sea;accurate;31.79178;121.09082;CHN;CHN;China
Chennai;INMAA;Sea;accurate;13.08638;80.29179;IND;IND;India
;;Unknown;unknown;-6.1084;17.45106;COD;COD;Democratic Republic of the Congo
Ama;;Unknown;accurate;29.93935;-90.31018;USA;USA;United States of America
Port Of Pavlodar;;Unknown;accurate;52.26504;76.9375;KAZ;KAZ;Kazakhstan
Montoir;;Unknown;accurate;47.30823;-2.06356;FRA;FRA;France
Kingushi Aval;;River;approximate;-4.99577;16.5421;COD;COD;Democratic Republic of the Congo
Sevilla (Seville);ESSVQ;Sea;accurate;37.35761;-5.99628;ESP;ESP;Spain
Kikundi;;River;accurate;-4.67662;18.73045;COD;COD;Democratic Republic of the Congo
Bremerton;USPWT;Sea;accurate;47.55647;-122.64346;USA;USA;United States of America
Hongai;VNHON;Sea;accurate;20.9484;107.08111;VNM;VNM;Viet Nam
Wamba;;River;approximate;-1.56329;22.39548;COD;COD;Democratic Republic of the Congo
Malela;;River;unknown;-0.27757;20.4595;COD;COD;Democratic Republic of the Congo
Lachine;CALAC;Sea;accurate;45.43195;-73.67093;CAN;CAN;Canada
Trois-Rivieres (Three Rivers);CATRR;Sea;accurate;46.33498;-72.5441;;CAN;
Naryan Mar;RUNNM;River;accurate;67.64154;52.97819;RUS;RUS;Russian Federation
Cape Race;CACRE;Sea;accurate;46.65998;-53.07504;;CAN;
Lindesnes;NOLDS;Sea;accurate;58.02451;7.10958;NOR;NOR;Norway
Sortland;NOSLX;Sea;accurate;68.69851;15.41978;NOR;NOR;Norway
Eemshaven;NLEEM;Sea;accurate;53.45567;6.81309;NLD;NLD;Netherlands
Ras Budran;;Unknown;accurate;28.94412;33.17307;EGY;EGY;Egypt
Kashima;JPKSM;Sea;accurate;35.92849;140.68824;JPN;JPN;Japan
Mtwapa;;River;accurate;-3.95237;39.74008;;KEN;
Sour;;Sea;accurate;33.27516;35.19441;;LBN;
Ruse;BGRDU;Sea;accurate;43.84213;25.93863;BGR;ROU;Bulgaria
Ringi Cove;SBRIN;Unknown;accurate;-8.12095;157.11375;SLB;SLB;Solomon islands
Allardyce Harbour;SBALB;Unknown;accurate;-7.77671;158.65405;SLB;SLB;Solomon islands
Porto Alexandre;AOPLE;Sea;accurate;-15.80344;11.82692;AGO;AGO;Angola
Malongo;AOMAL;Sea;accurate;-5.39638;12.19824;;AGO;
Vita;CUVIT;Sea;accurate;21.07662;-75.95281;CUB;CUB;Cuba
Xingang;;Unknown;accurate;38.99875;117.75317;CHN;CHN;China
Marans;FRMRN;Sea;accurate;46.31292;-0.99903;FRA;FRA;France
Higashi-Harima;JPTSG;Sea;accurate;34.7047;134.85507;JPN;JPN;Japan
Labuan;MYLBU;Sea;accurate;5.27616;115.24334;MYS;MYS;Malaysia
Butzfleth;DEBUZ;Sea;accurate;53.65256;9.50928;DEU;DEU;Germany
Brevik;NOBVK;Sea;accurate;59.05398;9.69912;NOR;NOR;Norway
Coloncha;VECOL;Sea;approximate;9.22313;-71.80326;VEN;VEN;Venezuela
El Tablazo / Maracaibo L;VEETV;Sea;accurate;10.75933;-71.53717;;VEN;
Balogo;PHBLG;Sea;accurate;13.75936;121.04326;;PHL;
Pyongtaek;KRPTK;Sea;accurate;36.95051;126.85044;;KOR;
Cumarebo;VECMR;Sea;accurate;11.48839;-69.35587;VEN;VEN;Venezuela
Las Piedras;VELSP;Sea;accurate;11.71858;-70.22181;;VEN;
Patillos;CLPTI;Sea;accurate;-20.7488;-70.19537;CHL;CHL;Chile
Map Ta Phut;THMAT;Sea;accurate;12.66904;101.15214;THA;THA;Thailand
Wemyss Bay;GBWMB;Sea;accurate;55.87592;-4.88938;GBR;GBR;U.K. of Great Britain and Northern Ireland
Clydeport;GBCYP;Sea;accurate;55.86947;-4.35129;GBR;GBR;U.K. of Great Britain and Northern Ireland
Barrow Island;AUBWB;Sea;accurate;-20.78873;115.46166;AUS;AUS;Australia
Moskenes;NOMSK;Sea;approximate;67.90357;13.04609;NOR;NOR;Norway
Ramfjordnes;NORMJ;Sea;approximate;69.50986;19.00223;NOR;NOR;Norway
Dingle;GBDIN;Sea;accurate;53.37803;-2.97257;GBR;GBR;U.K. of Great Britain and Northern Ireland
Port Taranaki;NZNPL;Sea;accurate;-39.05831;174.03565;;NZL;
Marsden Point;NZMAP;Sea;accurate;-35.83594;174.48896;NZL;NZL;New Zealand
Douglas;GBDGS;Sea;accurate;54.14731;-4.47651;IMN;IMY;Isle of Man
Europoort (Europort);NLEUR;Sea;accurate;51.95621;4.10797;NLD;NLD;Netherlands
Cabo Negro;CLCNX;Sea;accurate;-52.95594;-70.8303;CHL;CHL;Chile
Zhangzhou;CNZZU;Sea;accurate;24.40777;118.05832;CHN;CHN;China
Vadinar;INVAD;Sea;accurate;22.44433;69.70132;IND;IND;India
Kozhikode;INCCJ;Sea;accurate;11.26475;75.76653;IND;IND;India
Fukui;JPFKJ;Sea;accurate;36.20392;136.13697;JPN;JPN;Japan
Ryotsu;JPSDO;Sea;accurate;38.0852;138.43509;JPN;JPN;Japan
Cul De Sac;LCCDS;Sea;accurate;13.98204;-61.01169;LCA;LCA;Saint Lucia
Misima Island;PGMIS;Unknown;accurate;-10.68796;152.84523;PNG;PNG;Papua New Guinea
Skredsvik;SESKR;Sea;approximate;58.38152;11.66347;SWE;SWE;Sweden
Saleef Port;YESAL;Sea;accurate;15.31516;42.66979;YEM;YEM;Yemen
Fuikbaai;ANFUI;Sea;accurate;12.05588;-68.83356;ANT;ANT;Netherlands Antilles
Mina Saqr;AEMSA;Sea;accurate;25.97176;56.05441;ARE;ARE;United Arab Emirates
Ed Daliah;;Unknown;accurate;33.884;35.47341;;LBN;
Hitachinaka;;Sea;accurate;36.4237;140.61034;JPN;JPN;Japan
Manombo;MGMOB;Sea;approximate;-22.95701;43.4754;MDG;MDG;Madagascar
Osaka;;Sea;accurate;34.6416;135.43084;JPN;JPN;Japan
Rochester;USROC;Lake;accurate;43.25258;-77.60574;USA;USA;United States of America
Kashofu I;;River;accurate;-2.22421;29.02856;COD;COD;Democratic Republic of the Congo
Aguathuna (Port Au Port);CAPAP;Sea;accurate;48.54146;-58.7561;;CAN;
Ferndale;USFDT;Sea;accurate;48.82639;-122.70914;;USA;
Brooklyn;CABKN;Sea;accurate;44.05227;-64.69516;CAN;CAN;Canada
Ballast Head;AUBAH;Sea;accurate;-35.77152;137.78228;AUS;AUS;Australia
Fort Albany;CAFAL;Sea;accurate;52.22112;-81.67584;CAN;CAN;Canada
Port Arthur;CAPOA;Lake;accurate;48.43254;-89.21899;;CAN;
Father Point;CAFAP;Sea;accurate;48.5169;-68.47011;CAN;CAN;Canada
Traver;USTVY;Lake;accurate;44.76622;-85.62269;USA;USA;United States of America
Ramseur;USRSR;Sea;approximate;42.62609;-73.7511;USA;USA;United States of America
Thamshavn;NOTHA;Sea;accurate;63.31983;9.87871;NOR;NOR;Norway
Granton;GBGRN;Sea;accurate;55.98038;-3.16182;GBR;GBR;U.K. of Great Britain and Northern Ireland
Straumsvik;ISSTR;Sea;accurate;64.04534;-22.03755;ISL;ISL;Iceland
Akrotiri;CYAKT;Sea;accurate;34.57054;33.03232;CYP;CYP;Cyprus
Arguineguin;ESARI;Sea;accurate;27.75727;-15.68331;ESP;ESP;Spain
Tokyo;JPTYO;Sea;accurate;35.63683;139.80021;JPN;JPN;Japan
Hakata;;Unknown;accurate;33.60391;130.40854;JPN;JPN;Japan
Muhammad Bin Qasim;PKBQM;Sea;accurate;24.76535;67.3265;;PAK;
Barcelona;;Sea;accurate;10.82046;123.55672;;PHL;
Basarabi;ROBAB;Sea;accurate;44.1792;28.3939;ROU;ROU;Romania
Buka Ipangu;;Unknown;unknown;-6.10397;16.6481;AGO;AGO;Angola
Michurin;BGMIC;Sea;accurate;42.17156;27.85799;BGR;BGR;Bulgaria
Port Kamsar;GNKMR;Sea;accurate;10.64948;-14.61396;GIN;GIN;Guinea
Dibaya;;River;accurate;-4.14248;19.86086;COD;COD;Democratic Republic of the Congo
Bena Dibele;;River;accurate;-4.11096;22.82537;COD;COD;Democratic Republic of the Congo
Bashishombe;;River;approximate;-4.64903;21.01084;COD;COD;Democratic Republic of the Congo
Mapangu;;River;approximate;-5.45787;20.9843;COD;COD;Democratic Republic of the Congo
Kasenyi;;Lake;accurate;1.3931;30.44307;COD;COD;Democratic Republic of the Congo
Mahagi;;Lake;accurate;2.14212;31.24024;COD;COD;Democratic Republic of the Congo
Kilwa;;Lake;accurate;-9.28898;28.34162;COD;COD;Democratic Republic of the Congo
Masia;;River;accurate;-3.07379;16.5273;COD;COD;Democratic Republic of the Congo
Libenge;;River;accurate;3.64043;18.62844;COD;COD;Democratic Republic of the Congo
Zongo;;River;accurate;4.35458;18.60014;COD;COD;Democratic Republic of the Congo
Kamba;;River;approximate;-4.0057;22.22002;COD;COD;Democratic Republic of the Congo
Havana;;Unknown;accurate;23.1236;-82.34714;;CUB;
Ibaka;;River;accurate;-4.63082;23.22856;COD;COD;Democratic Republic of the Congo
Gabia;;River;approximate;-4.55037;17.12902;COD;COD;Democratic Republic of the Congo
Popokabaka;;River;accurate;-5.69573;16.5787;COD;COD;Democratic Republic of the Congo
Kasenga;;River;accurate;-10.39208;28.62025;COD;COD;Democratic Republic of the Congo
Pania-Mutombo;;River;accurate;-5.18555;23.8513;COD;COD;Democratic Republic of the Congo
Businga;;River;accurate;3.32727;20.87784;COD;COD;Democratic Republic of the Congo
Kutu;;River;accurate;-2.73073;18.14202;COD;COD;Democratic Republic of the Congo
Keta;GHKIT;Sea;accurate;5.90744;0.98527;GHA;GHA;Ghana
Galle;LKGAL;Sea;accurate;6.03219;80.23298;;LKA;
Baraderes;;Unknown;accurate;18.5029;-73.64318;HTI;HTI;Haiti
Lille;FRLLE;Sea;accurate;50.62586;3.02637;FRA;FRA;France
Prudhoe;USPUO;Sea;accurate;70.3125;-148.31395;USA;USA;United States of America
;;Lake;unknown;65.02647;-18.29607;ISL;ISL;Iceland
Langkawi;MYLGK;Sea;approximate;6.31061;99.85596;MYS;MYS;Malaysia
Sevivara Point;IDSVP;Sea;unknown;-8.34347;127.1977;TLS;TLS;Timor-Leste
Kaohsiung;TWKHH;Sea;accurate;22.60863;120.28511;TWN;CHN;Taiwan
Yonkers;USYON;Sea;accurate;40.93516;-73.90321;USA;USA;United States of America
General Santos;PHDAD;Sea;accurate;6.09409;125.15525;;PHL;
Kailanga;;River;unknown;1.32376;21.71864;COD;COD;Democratic Republic of the Congo
St Petersburg;RULED;Sea;accurate;59.94858;30.22013;RUS;RUS;Russian Federation
Puerto Barrios;GTPBR;Sea;accurate;15.73406;-88.60516;;GTM;
Conakry;GNCKY;Sea;accurate;9.51828;-13.7125;;GIN;
Jacmel;;Unknown;accurate;18.2318;-72.5357;HTI;HTI;Haiti
Bocagrande;USBCG;Sea;approximate;26.74853;-82.25586;;USA;
Shimizu;JPSMZ;Sea;accurate;35.00662;138.49723;JPN;JPN;Japan
Limetree Bay;VILIB;Sea;accurate;17.7008;-64.75497;;VIR;
Larne;GBLAR;Sea;accurate;54.84893;-5.80023;GBR;GBR;U.K. of Great Britain and Northern Ireland
Tarragona;ESTAR;Sea;accurate;41.11093;1.2407;ESP;ESP;Spain
Yanonge;;River;accurate;0.59753;24.71692;COD;COD;Democratic Republic of the Congo
Saint George'S;GDSTG;Sea;accurate;12.05017;-61.74913;GRD;GRD;Grenada
Seattle;USSEA;Sea;accurate;47.59379;-122.33823;USA;USA;United States of America
Vestmanhavn;FOVES;Sea;accurate;62.15336;-7.16988;FRO;FRO;Faroe Islands
Oulu;FIOUL;Sea;accurate;65.00017;25.43588;FIN;FIN;Finland
Mo I Rana;NOMQN;Sea;accurate;66.31407;14.13048;NOR;NOR;Norway
Marsaxlokk;MTMAR;Sea;accurate;35.81691;14.53761;MLT;MLT;Malta
Caticlan;;Sea;accurate;11.92782;121.95044;PHL;PHL;Philippines
Sitia;GRJSH;Sea;accurate;35.21253;26.11098;GRC;GRC;Greece
Qurayyat;;Sea;accurate;23.2573;58.92382;OMN;;Oman
Hadsund;DKHSU;Sea;accurate;56.71706;10.12581;DNK;DNK;Denmark
Rio Marina;ITRMA;Sea;accurate;42.81354;10.42879;;ITA;
Lorient;FRLRT;Sea;accurate;47.72968;-3.36081;FRA;FRA;France
Binga;;River;accurate;2.39416;20.50903;COD;COD;Democratic Republic of the Congo
Gruvon;SEGRU;Sea;accurate;59.34149;13.12375;SWE;SWE;Sweden
Svelgen;NOSVE;Sea;accurate;61.76962;5.29368;NOR;NOR;Norway
Ormara;PKORW;Sea;accurate;25.20276;64.67433;;PAK;
El Minie;;Unknown;accurate;34.48356;35.92342;;LBN;
Lubeck;DELBC;Sea;accurate;53.89636;10.69889;DEU;DEU;Germany
Killybegs;IEKBS;Sea;accurate;54.63133;-8.44534;IRL;IRL;Ireland
Haderslev;DKHAD;Sea;accurate;55.2476;9.49648;DNK;DNK;Denmark
Hirohata;JPHRH;Sea;accurate;34.78481;134.6237;JPN;JPN;Japan
Kuwait Navy Base;;Sea;accurate;28.86345;48.28194;KWT;KWT;Kuwait
Bahia de Caraquez;ECBHA;Sea;accurate;-0.61084;-80.42418;ECU;ECU;Ecuador
Polloc;PHPLC;Sea;accurate;7.35111;124.22257;;PHL;
Vavony;;River;approximate;-18.76998;49.18276;MDG;MDG;Madagascar
Port Dover;CAPDV;Lake;accurate;42.78291;-80.19719;CAN;CAN;Canada
Hobro;DKHBO;Sea;accurate;56.63844;9.80337;DNK;DNK;Denmark
Sharjah;AESHJ;Sea;accurate;25.36269;55.37687;ARE;ARE;United Arab Emirates
Alliance;USAIH;Sea;accurate;29.67435;-89.96531;USA;USA;United States of America
Isthmia;GRITM;Sea;accurate;37.91645;23.00835;GRC;GRC;Greece
Cotonou;BJCOO;Sea;accurate;6.34929;2.42593;BEN;MLI,NER;Benin
Levis;CALEV;Sea;accurate;46.78911;-71.19492;CAN;CAN;Canada
Porto Corsini;ITPCS;Sea;accurate;44.49452;12.28201;ITA;ITA;Italy
Burgeo;CABUO;Sea;accurate;47.60924;-57.60936;;CAN;
Limni;GRLII;Sea;accurate;38.76343;23.32182;GRC;GRC;Greece
Cobh;IECOB;Sea;accurate;51.84788;-8.32325;IRL;IRL;Ireland
Genova;ITGOA;Sea;accurate;44.40205;8.92996;ITA;ITA;Italy
Leer;DELEE;Sea;accurate;53.22295;7.46004;DEU;DEU;Germany
Yanai;;Sea;accurate;33.95667;132.13416;JPN;JPN;Japan
Naze;;Sea;accurate;28.38602;129.49498;JPN;JPN;Japan
Baku;;Sea;accurate;40.34486;49.84528;AZE;AZE;Azerbaijan
Shelburne;CASBU;Sea;accurate;43.75676;-65.31997;CAN;CAN;Canada
Hopa;TRHOP;Sea;accurate;41.40556;41.42923;;TUR;
Soraker;SESOR;Sea;approximate;62.50187;17.50669;SWE;SWE;Sweden
En Naqoura;;Unknown;accurate;33.12491;35.14311;LBN;LBN;Lebanon
El Heri;;Unknown;accurate;34.31069;35.71581;LBN;LBN;Lebanon
Port Colborne;CAPCO;Lake;accurate;42.87226;-79.24546;;CAN;
Pomoyo;;River;approximate;-4.17277;16.53;COD;COD;Democratic Republic of the Congo
Cadiz;ESCAD;Sea;accurate;36.53249;-6.28584;ESP;ESP;Spain
Luebo;;River;accurate;-5.33897;21.40916;COD;COD;Democratic Republic of the Congo
Salaverry;PESVY;Sea;accurate;-8.22857;-78.98235;PER;PER;Peru
Paita;PEPAI;Sea;accurate;-5.0847;-81.10577;;PER;
Redon;FRRDN;Sea;accurate;47.64521;-2.08906;FRA;FRA;France
Ambalavontaka;;River;accurate;-21.32497;48.32649;MDG;MDG;Madagascar
Luabo;;Unknown;accurate;-18.39597;36.09244;MOZ;MOZ;Mozambique
Fortune;CAFOR;Sea;accurate;47.07354;-55.82975;CAN;CAN;Canada
Basongo;;River;accurate;-4.32593;20.3647;COD;COD;Democratic Republic of the Congo
Irebu;;River;accurate;-0.60455;17.77738;COD;COD;Democratic Republic of the Congo
Ampanotoamaizina;;River;accurate;-18.70184;49.19784;MDG;MDG;Madagascar
Sabine;USSAB;Sea;accurate;29.7191;-93.86484;;USA;
Fernandina Beach;USFEB;Sea;accurate;30.6784;-81.46334;USA;USA;United States of America
Basankusu;;River;accurate;1.22927;19.80515;COD;COD;Democratic Republic of the Congo
Kitaibaraki;;Sea;accurate;36.82914;140.78379;JPN;JPN;Japan
Point Comfort;USPCR;Sea;accurate;28.64406;-96.54913;USA;USA;United States of America
Zelenika;YUZEL;Sea;accurate;42.45022;18.57279;MNE;MNE;Montenegro
Bangkok;THBKK;River;accurate;13.70734;100.56578;THA;THA;Thailand
Bangui;;River;accurate;4.35808;18.57873;CAF;CAF;Central African Republic
Maluku;;River;accurate;-4.05352;15.55272;COD;COD;Democratic Republic of the Congo
Corail;;Unknown;accurate;18.56787;-73.89068;HTI;HTI;Haiti
Dong Hoi;VNDOH;Sea;accurate;17.45737;106.63216;VNM;VNM;Viet Nam
Es Saadiyat;;Unknown;approximate;33.6944;35.42614;LBN;LBN;Lebanon
Talibon;;Sea;accurate;10.15141;124.327;PHL;PHL;Philippines
Harper;LRHAR;Sea;accurate;4.36886;-7.72703;;LBR;
Dongo;;River;accurate;2.72481;18.40466;COD;COD;Democratic Republic of the Congo
Kalundu;;Lake;accurate;-3.43394;29.13003;COD;COD;Democratic Republic of the Congo
Lukolela;;River;approximate;-1.05557;17.18377;COD;COD;Democratic Republic of the Congo
Uvira;;Lake;accurate;-3.4418;29.1296;COD;COD;Democratic Republic of the Congo
Lusengo;;River;accurate;1.78397;19.40103;COD;COD;Democratic Republic of the Congo
Favignana;ITFAV;Sea;accurate;37.93234;12.32716;ITA;ITA;Italy
Portsmouth;GBPME;Sea;accurate;50.80806;-1.09311;GBR;GBR;U.K. of Great Britain and Northern Ireland
Bujumbura;;River;accurate;-3.37743;29.34555;BDI;BDI;Burundi
Lulonga;;River;accurate;0.63912;18.38224;COD;COD;Democratic Republic of the Congo
Antsiramihanana;;River;accurate;-19.19448;49.00957;MDG;MDG;Madagascar
Carloforte;ITCLF;Sea;accurate;39.14699;8.3085;ITA;ITA;Italy
Kavieng;PGKVG;Unknown;accurate;-2.58504;150.78931;PNG;PNG;Papua New Guinea
Es Safra;;Unknown;accurate;34.03494;35.62566;;LBN;
Lokoja;;River;accurate;7.79961;6.749;NGA;NGA;Nigeria
Glomfjord;NOGLO;Sea;approximate;66.81393;13.9397;NOR;NOR;Norway
Sawakin;;Sea;accurate;19.11574;37.34273;SDN;SDN;Sudan
Baddeck;CABAD;Sea;accurate;46.10014;-60.74807;;CAN;
Dakar;SNDKR;Sea;accurate;14.68863;-17.42513;;MLI;
Liloan;;Sea;accurate;10.15907;125.12508;PHL;PHL;Philippines
Kisangani;;River;accurate;0.50677;25.194;COD;COD;Democratic Republic of the Congo
Kalemie;;Lake;accurate;-5.94774;29.20113;COD;COD;Democratic Republic of the Congo
Ilebo;;River;accurate;-4.33198;20.56961;COD;COD;Democratic Republic of the Congo
Umm Qasr;IQUQR;Sea;accurate;30.05038;47.93691;IRQ;IRQ;Iraq
Bolobo;;River;accurate;-2.15393;16.22456;COD;COD;Democratic Republic of the Congo
Baybay;;Sea;accurate;10.67586;124.79863;;PHL;
Hilongos;;Sea;accurate;10.3707;124.74379;;PHL;
Morondava;MGMOQ;River;accurate;-20.29036;44.27342;;MDG;
Temera;;River;approximate;16.99875;-0.89769;MLI;MLI;Mali
Tema;GHTEM;Sea;accurate;5.63042;0.0057;GHA;MLI,NER;Ghana
Lusambo;;River;accurate;-4.97534;23.43444;COD;COD;Democratic Republic of the Congo
Kinshasa;;River;accurate;-4.29838;15.32049;COD;COD;Democratic Republic of the Congo
Wau;;River;accurate;7.70905;28.00718;SSD;SSD;South Sudan
Akula;;River;accurate;2.37442;20.18482;COD;COD;Democratic Republic of the Congo
Mushie;;River;accurate;-3.02476;16.92354;COD;COD;Democratic Republic of the Congo
Niamina;;River;accurate;13.31305;-6.98246;MLI;MLI;Mali
Funchal;PTFNC;Sea;accurate;32.64166;-16.91728;PRT;PRT;Madeira Islands
Cheikh Zennad;;Sea;accurate;34.60732;35.98605;;LBN;
Kirango;;River;accurate;13.70402;-6.07129;MLI;MLI;Mali
Contrecoeur;CACOC;Sea;accurate;45.85787;-73.2391;CAN;CAN;Canada
Abidjan;CIABJ;Sea;accurate;5.31057;-4.01567;CIV;CIV;Côte d'Ivoire
Mogadishu;;Sea;accurate;2.02372;45.33836;SOM;SOM;Somalia
Amal;SEAMA;Sea;accurate;59.05472;12.70784;SWE;SWE;Sweden
Lome;TGLFW;Sea;accurate;6.13796;1.27344;TGO;TGO,MLI,NER;Togo
Monrovia;LRMLW;Sea;accurate;6.33922;-10.79589;;LBR;
Freetown;SLFNA;Sea;accurate;8.49313;-13.21556;;SLE;
Bissau;GWOXB;Sea;accurate;11.85996;-15.57693;;GNB;
Katonda;;River;accurate;-1.99933;29.05244;COD;COD;Democratic Republic of the Congo
Bugarura;;River;accurate;-2.03514;29.06153;COD;COD;Democratic Republic of the Congo
San Isidro;;Sea;accurate;11.40489;124.35045;PHL;PHL;Philippines
Berbera;;Sea;accurate;10.43781;44.99735;;SOM,YEM, ETH;
Surigao;PHSUG;Sea;accurate;9.81533;125.45457;PHL;PHL;Philippines
Kiumba;;River;accurate;-1.94096;29.09117;COD;COD;Democratic Republic of the Congo
La Louviere;BELLO;Sea;accurate;50.49633;4.18935;BEL;BEL;Belgium
Ardalstangen;NOARD;Sea;accurate;61.23498;7.70851;NOR;NOR;Norway
Cartagena;COCTG;Sea;accurate;10.40575;-75.53294;;COL;
Belawan;IDBLW;Sea;accurate;3.79246;98.71623;;IDN;
Gorontalo;IDGTO;Sea;accurate;0.49764;123.06938;;IDN;
Foundiougne;SNFOU;Sea;accurate;14.1301;-16.46728;SEN;SEN;Senegal
Andranokoditra;;River;accurate;-18.59749;49.24862;MDG;MDG;Madagascar
Dusseldorf;DEDUS;Sea;accurate;51.2165;6.75225;DEU;DEU;Germany
Bukavu;;Lake;accurate;-2.49332;28.85055;COD;COD;Democratic Republic of the Congo
Goma;;Lake;accurate;-1.6859;29.22245;COD;COD;Democratic Republic of the Congo
Iharana;;Sea;accurate;-13.3542;50.00626;MDG;MDG;Madagascar
Odessa;UAODS;Sea;accurate;46.48652;30.74854;UKR;UKR;Ukraine
Kherson;UAKHE;Sea;accurate;46.65936;32.66325;UKR;UKR;Ukraine
Yalta;UAYAL;Sea;accurate;44.49547;34.17137;UKR;UKR;Ukraine
Kerch;UAKEH;Sea;accurate;45.36156;36.48145;UKR;UKR;Ukraine
Reni;UARNI;River;accurate;45.42039;28.28888;UKR;UKR;Ukraine
Mariupol;;Sea;accurate;47.09613;37.57886;UKR;UKR;Ukraine
Vung Tau;VNVUT;Sea;accurate;10.33871;107.07185;VNM;VNM;Viet Nam
Owen Sound;CAOWS;Lake;accurate;44.58452;-80.94519;CAN;CAN;Canada
Parry Sound;CAPRS;Lake;accurate;45.33901;-80.03586;CAN;CAN;Canada
Port Weller;CAPWE;Lake;accurate;43.22714;-79.21533;CAN;CAN;Canada
Gatun;PAGTN;Lake;accurate;9.26823;-79.91489;PAN;PAN;Panama
Mushuni;;River;accurate;-4.20396;17.93301;COD;COD;Democratic Republic of the Congo
Wafania;;River;accurate;-1.50699;20.44253;COD;COD;Democratic Republic of the Congo
Matane;CAYME;Sea;accurate;48.83754;-67.56091;CAN;CAN;Canada
Isongo;;River;approximate;-0.75336;21.25721;COD;COD;Democratic Republic of the Congo
Verdal;NOVER;Sea;accurate;63.7849;11.45041;NOR;NOR;Norway
Stewart;CASTW;Sea;accurate;55.92518;-129.99211;CAN;CAN;Canada
Tshumbiri;;River;accurate;-2.64176;16.24109;COD;COD;Democratic Republic of the Congo
Butala;;River;approximate;-4.11384;20.89145;COD;COD;Democratic Republic of the Congo
Eolo;;River;accurate;-3.70276;18.90356;COD;COD;Democratic Republic of the Congo
Tampina;;River;accurate;-18.5248;49.27788;MDG;MDG;Madagascar
Marovintsy;;River;accurate;-19.24634;48.94762;MDG;MDG;Madagascar
Yumbi;;River;accurate;-1.88792;16.56654;COD;COD;Democratic Republic of the Congo
Mobeka;;River;accurate;1.88887;19.76289;COD;COD;Democratic Republic of the Congo
Iloilo;PHCRT;Sea;accurate;10.69083;122.58278;;PHL;
Aden;YEADE;Sea;accurate;12.79655;45.00748;;YEM;
Mangai;;River;accurate;-4.05109;19.57509;COD;COD;Democratic Republic of the Congo
Lodi;;River;accurate;-4.02605;21.33528;COD;COD;Democratic Republic of the Congo
Bokila;;River;unknown;-4.02723;21.67708;COD;COD;Democratic Republic of the Congo
Burea;SEBUR;Sea;accurate;64.622;21.23904;SWE;SWE;Sweden
Fecamp;FRFEC;Sea;accurate;49.76123;0.36504;FRA;FRA;France
Banjul;GMBJL;Sea;accurate;13.44666;-16.57261;;GMB;
Moa;CUMOA;Sea;accurate;20.65441;-74.90792;CUB;;Cuba
Pilon;CUPIL;Sea;accurate;19.90244;-77.3213;CUB;CUB;Cuba
Tripoli;;Sea;accurate;34.45253;35.8313;LBN;LBN,SYR;Lebanon
Lattakia;SYLTK;Sea;accurate;35.50998;35.7654;;SYR;
Tartous;SYTTS;Sea;accurate;34.90933;35.87337;;SYR;
Kabara;;River;accurate;16.70479;-2.98521;MLI;MLI;Mali
Mopti;;River;accurate;14.49752;-4.20005;MLI;MLI;Mali
Toliara;MGTLE;Sea;accurate;-23.37752;43.66442;;MDG;
Toamasina;MGTMM;Sea;accurate;-18.15439;49.42657;;MDG;
Beirut;;Sea;accurate;33.90151;35.51784;LBN;SYR;Lebanon
Koulikoro;;River;accurate;12.85769;-7.55752;MLI;MLI;Mali
Adok;;River;accurate;8.18492;30.32083;SSD;SSD;South Sudan
Bentiu;;River;accurate;9.29067;29.80528;SSD;SSD;South Sudan
Bor;;River;accurate;6.20396;31.55338;SSD;SSD;South Sudan
Juba;;River;accurate;4.8306;31.61432;SSD;SSD;South Sudan
Malakal;;River;accurate;9.52636;31.65087;SSD;SSD;South Sudan
Aqaba;JOAQJ;Sea;accurate;29.51308;34.99603;;SYR;
Wema;;River;accurate;-0.47905;21.63578;COD;COD;Democratic Republic of the Congo
Ibembo;;River;accurate;2.64323;23.61932;COD;COD;Democratic Republic of the Congo
Muntu;;River;accurate;-2.90274;18.45503;COD;COD;Democratic Republic of the Congo
Botende;;River;unknown;-1.85787;22.7951;COD;COD;Democratic Republic of the Congo
Kimbe;PGKIM;Unknown;accurate;-5.5496;150.14768;;PNG;
Aitape;PGATP;Unknown;accurate;-3.14373;142.35152;PNG;PNG;Papua New Guinea
Mombasa;KEMBA;Sea;accurate;-4.05997;39.64962;;KEN,COD,UGA,SSD,SOM,ETH;
Zeytinburnu;TRZEY;Unknown;accurate;40.98118;28.8942;;TUR;
Les Cayes;HTACA;Unknown;accurate;18.1903;-73.74866;HTI;HTI;Haiti
Milwaukee;USMKE;Lake;accurate;43.01863;-87.8977;USA;USA;United States of America
Port Washington;USPWA;Lake;accurate;43.38835;-87.86688;USA;USA;United States of America
Oswego;USOSW;Lake;accurate;43.46273;-76.51721;USA;USA;United States of America
Crescent City;USCEC;Sea;accurate;41.7469;-124.18245;USA;USA;United States of America
Bucksport;USBUP;Sea;accurate;44.57407;-68.80072;USA;USA;United States of America
Carmanville;CACMV;Sea;accurate;49.40497;-54.28426;;CAN;
Squamish;CASQA;Sea;accurate;49.68616;-123.17109;;CAN;
Unalaska;USUAA;Sea;accurate;53.87115;-166.55334;;USA;
Dutch Harbor;USDUT;Sea;accurate;53.89044;-166.53674;USA;USA;United States of America
Atreco;USATR;Sea;accurate;29.98027;-93.88166;USA;USA;United States of America
Lake Charles;USLCH;Sea;accurate;30.21029;-93.2529;USA;USA;United States of America
Plaquemine;USPLQ;Sea;accurate;30.28319;-91.2235;USA;USA;United States of America
Wilmington;USILM;Sea;accurate;34.24448;-77.95081;USA;USA;United States of America
Coos Bay;USCOB;Sea;accurate;43.36046;-124.20106;USA;USA;United States of America
Montreal;CAMTR;Sea;accurate;45.50598;-73.55447;CAN;CAN;Canada
Sydney;CASYD;Sea;accurate;46.14201;-60.19996;CAN;CAN;Canada
Newcastle;CANCT;Sea;accurate;46.99999;-65.56252;CAN;CAN;Canada
Long Harbour;CALOH;Sea;accurate;47.42381;-53.81836;CAN;CAN;Canada
Brunswick;USSSI;Sea;accurate;31.13101;-81.49228;USA;USA;United States of America
Annapolis;USANP;Sea;accurate;38.98252;-76.48021;;USA;
Liverpool;CALIV;Sea;accurate;44.04121;-64.71436;CAN;CAN;Canada
Brockville;CABCK;Sea;accurate;44.58558;-75.68675;;CAN;
Bangor;USBGR;Sea;accurate;44.7809;-68.78089;USA;USA;United States of America
Becancour;CABEC;Sea;accurate;46.40246;-72.38054;;CAN;
Silverdale;USSIF;Sea;accurate;47.64433;-122.6953;USA;USA;United States of America
Cowichan Bay;CACCB;Sea;accurate;48.76042;-123.63869;;CAN;
Lewisporte;CALWP;Sea;accurate;49.24695;-55.05328;;CAN;
Campbell River;CACAM;Sea;accurate;50.0273;-125.24202;CAN;CAN;Canada
Port Angeles;USCLM;Sea;accurate;48.13011;-123.46101;;USA;
Lamlash;GBLAH;Sea;accurate;55.53555;-5.12597;GBR;GBR;U.K. of Great Britain and Northern Ireland
Burntisland;GBBTL;Sea;accurate;56.05717;-3.23194;GBR;GBR;U.K. of Great Britain and Northern Ireland
Fomboni;KMFOU;Sea;accurate;-12.29011;43.75327;COM;COM;Comoros
Portrush;GBPTR;Sea;accurate;55.20727;-6.65835;GBR;GBR;U.K. of Great Britain and Northern Ireland
Patmos;GRPMS;Sea;accurate;37.32355;26.54462;GRC;GRC;Greece
Chioggia;ITCHI;Sea;accurate;45.2245;12.27653;;ITA;
Trieste;ITTRS;Sea;accurate;45.64804;13.76334;ITA;ITA;Italy
Puttgarden;DEPUT;Sea;accurate;54.50216;11.22509;DEU;DEU;Germany
Sassnitz;DESAS;Sea;accurate;54.5152;13.64985;;DEU;
Conneaut;USCDY;Lake;accurate;41.96911;-80.55082;;USA;
Windsor;CAWND;Lake;accurate;42.30511;-83.07667;USA;CAN;United States of America
Wrightsville;USXOG;Sea;accurate;34.21484;-77.78957;;USA;
Lewes;USLWP;Sea;accurate;38.78215;-75.11968;;USA;
Tenes;DZTEN;Sea;accurate;36.52146;1.31884;DZA;DZA;Algeria
Horten;NOHOR;Sea;accurate;59.4148;10.49314;NOR;NOR;Norway
Slemmestad;NOSLM;Sea;accurate;59.7818;10.49802;NOR;NOR;Norway
Svano;SESVX;Sea;accurate;62.89587;17.86503;SWE;SWE;Sweden
Kristiansund;NOKSU;Sea;accurate;63.11498;7.73397;NOR;NOR;Norway
Dapa;;Sea;approximate;9.75569;126.05316;;PHL;
Ellesmere Port;GBELL;Sea;accurate;53.29667;-2.90789;GBR;GBR;U.K. of Great Britain and Northern Ireland
Immingham;GBIMM;Sea;accurate;53.62562;-0.18992;GBR;GBR;U.K. of Great Britain and Northern Ireland
Solin;HRSLN;Sea;accurate;43.53884;16.46507;HRV;HRV;Croatia
Pauillac;FRPAP;Sea;accurate;45.19839;-0.74537;FRA;FRA;France
Braila;ROBRA;Sea;accurate;45.2824;27.98468;ROU;ROU;Romania
Bakar;HRBAK;Sea;accurate;45.30216;14.53705;HRV;HRV;Croatia
Rochefort;FRRCO;Sea;accurate;45.93618;-0.95605;FRA;FRA;France
Shengjin;ALSHG;Sea;accurate;41.81386;19.58879;ALB;ALB;Albania
Rye;GBRYE;Sea;accurate;50.94917;0.73703;GBR;GBR;U.K. of Great Britain and Northern Ireland
Calais;FRCQF;Sea;accurate;50.96679;1.86574;FRA;FRA;France
Tilbury;GBTIL;Sea;accurate;51.45729;0.3522;GBR;GBR;U.K. of Great Britain and Northern Ireland
Rochford;GBRFD;Sea;accurate;51.57951;0.72344;GBR;GBR;U.K. of Great Britain and Northern Ireland
Maldon;GBMAL;Sea;accurate;51.73103;0.6865;GBR;GBR;U.K. of Great Britain and Northern Ireland
Tarbert;GBTAB;Sea;accurate;52.5875;-9.37338;IRL;IRL;Ireland
Bremen;DEBRE;Sea;accurate;53.09549;8.76428;DEU;DEU;Germany
Runcorn;GBRUN;Sea;accurate;53.33978;-2.74926;GBR;GBR;U.K. of Great Britain and Northern Ireland
Khanom;THKHA;Sea;accurate;9.20918;99.8803;THA;THA;Thailand
El Jadida;MAELJ;Sea;accurate;33.25902;-8.50211;MAR;MAR;Morocco
Kitakyushu;JPTBT;Sea;accurate;33.91762;130.84722;JPN;JPN;Japan
Collo;DZCOL;Sea;accurate;37.00585;6.57063;;DZA;
Bizerte;TNBIZ;Sea;accurate;37.27439;9.87852;;TUN;
Safi;MASFI;Sea;accurate;32.30577;-9.24486;;MAR;
Porto Amboim;AOPBN;Sea;accurate;-10.75145;13.7367;AGO;AGO;Angola
Songkhla;THSGZ;Sea;accurate;7.2269;100.56839;THA;THA;Thailand
Hirao;JPHRA;Sea;accurate;33.90939;132.05864;JPN;JPN;Japan
Tonda;JPTND;Sea;accurate;34.05621;131.76597;JPN;JPN;Japan
Kainan;JPKAI;Sea;accurate;34.15601;135.19246;JPN;JPN;Japan
Naruto;JPNRU;Sea;accurate;34.14768;134.61553;JPN;JPN;Japan
Caleta Olivia;ARCVI;Sea;accurate;-46.47079;-67.4988;ARG;ARG;Argentina
Nelson;NZNSN;Sea;accurate;-41.26191;173.27736;NZL;NZL;New Zealand
Albany;AUALH;Sea;accurate;-35.02993;117.88819;AUS;AUS;Australia
Fortaleza;BRFOR;Sea;accurate;-3.71125;-38.47379;BRA;BRA;Brazil
Bintulu;MYBTU;Sea;accurate;3.16872;113.04342;MYS;MYS;Malaysia
Bais;PHBAI;Sea;accurate;9.59447;123.14314;PHL;PHL;Philippines
Sanya;CNSYX;Sea;accurate;18.23103;109.4935;CHN;CHN;China
Shuidong;CNSDG;Sea;accurate;21.48051;111.0627;CHN;CHN;China
Hong Kong;HKHKG;Sea;accurate;22.30198;114.16482;HKG;HKG;Hong Kong
Shantou;CNSWA;Sea;accurate;23.3518;116.73699;CHN;CHN;China
Nishihara;JPNHR;Sea;accurate;26.2273;127.78651;JPN;JPN;Japan
Shimabara;JPSMB;Sea;accurate;32.77916;130.38003;JPN;JPN;Japan
Kanda;JPKND;Sea;accurate;33.77352;131.00673;JPN;JPN;Japan
Tateyama;JPTTY;Sea;accurate;34.98865;139.854;JPN;JPN;Japan
Tsuiyama;JPTYM;Sea;accurate;35.64482;134.82683;JPN;JPN;Japan
Erdek;TRERK;Sea;accurate;40.39613;27.79244;;TUR;
Hakodate;JPHKD;Sea;accurate;41.76984;140.71147;JPN;JPN;Japan
Novorossiysk;RUNVS;Sea;accurate;44.73042;37.77906;RUS;RUS;Russian Federation
Strahan;AUSRN;Sea;accurate;-42.15396;145.32792;AUS;AUS;Australia
Picton;NZPCN;Sea;accurate;-41.28537;174.00483;NZL;NZL;New Zealand
Bell Bay;AUBEL;Sea;accurate;-41.13518;146.85943;AUS;AUS;Australia
Bahia Blanca;ARBHI;Sea;accurate;-38.78797;-62.27291;ARG;ARG;Argentina
Wallaroo;AUWAL;Sea;accurate;-33.92361;137.62835;AUS;AUS;Australia
Yamba;AUYBA;Sea;accurate;-29.43601;153.35728;AUS;AUS;Australia
Gladstone;AUGLT;Sea;accurate;-23.83063;151.23988;AUS;AUS;Australia
Papeete;PFPPT;Sea;accurate;-17.53532;-149.56887;PYF;PYF;French Polynesia
Bislig;PHBPH;Sea;accurate;8.19006;126.35562;PHL;PHL;Philippines
Huangpu;CNHUA;Sea;accurate;23.09566;113.43781;CHN;CHN;China
Shibushi;JPSBS;Sea;accurate;31.46344;131.09707;JPN;JPN;Japan
Usuki;JPUSK;Sea;accurate;33.1248;131.81113;JPN;JPN;Japan
Tomakomai;JPTMK;Sea;accurate;42.63822;141.63626;JPN;JPN;Japan
Haikou;CNHAK;Sea;accurate;20.02025;110.28296;CHN;CHN;China
Nakhodka;RUNJK;Sea;accurate;42.80684;132.88524;RUS;RUS;Russian Federation
Bowen;AUZBO;Sea;accurate;-20.01751;148.24799;AUS;AUS;Australia
Cairns;AUCNS;Sea;accurate;-16.9312;145.77892;AUS;AUS;Australia
Kudat;MYKUD;Sea;accurate;6.8811;116.84749;MYS;MYS;Malaysia
Araya;VEARA;Sea;accurate;10.57642;-64.26399;VEN;VEN;Venezuela
Beypore;INBEY;Sea;accurate;11.16603;75.80719;IND;IND;India
Mundra;INMUN;Sea;accurate;22.74313;69.69478;IND;IND;India
Gasan;PHGAS;Sea;accurate;13.32811;121.84354;PHL;PHL;Philippines
Tabaco;PHTBC;Sea;accurate;13.36124;123.73506;;PHL;
Tanabe;JPTAE;Sea;accurate;33.7316;135.36668;JPN;JPN;Japan
Hikari;JPHKR;Sea;accurate;33.95791;131.92543;JPN;JPN;Japan
Onoda;JPOND;Sea;accurate;33.97586;131.17123;JPN;JPN;Japan
Qingdao;CNTAO;Sea;accurate;36.05714;120.32468;CHN;CHN;China
Weihai;CNWEI;Sea;accurate;37.50551;122.12058;CHN;CHN;China
Onagawa;JPONG;Sea;accurate;38.44568;141.45311;JPN;JPN;Japan
Vladivostok;RUVVO;Sea;accurate;43.11245;131.88321;RUS;RUS;Russian Federation
Tuapse;RUTUA;Sea;accurate;44.09488;39.06453;RUS;RUS;Russian Federation
Parnu;EEPAR;Sea;accurate;58.38599;24.48093;EST;EST;Estonia
Hanko;FIHKO;Sea;accurate;59.82253;22.94924;FIN;FIN;Finland
Kantvik;FIKNT;Sea;accurate;60.08686;24.38142;FIN;FIN;Finland
Pechenga;RUPCE;Sea;approximate;69.63999;31.35741;RUS;RUS;Russian Federation
Pevek;RUPWE;Sea;approximate;69.69783;170.2997;RUS;RUS;Russian Federation
Lirquen;CLLQN;Sea;accurate;-36.71417;-72.98322;CHL;CHL;Chile
Puerto Carreno;COPCR;River;accurate;6.18393;-67.47408;COL;COL;Colombia
Sint Nicolaas;AWSNL;Sea;accurate;12.42711;-69.90302;ABW;ABW;Aruba
Hamilton;BMBDA;Sea;accurate;32.29105;-64.78655;;BMU;
Puerto Deseado;ARPUD;Sea;accurate;-47.75347;-65.91264;ARG;ARG;Argentina
San Antonio;CLSAI;Sea;accurate;-33.59777;-71.61743;CHL;CHL;Chile
Oranjestad;AWORJ;Sea;accurate;12.51912;-70.03845;;ABW;
La Guaira;VELAG;Sea;accurate;10.59814;-66.94142;;VEN;
Tampico;MXTAM;Sea;accurate;22.21337;-97.86337;MEX;MEX;Mexico
Iquitos;PEIQT;River;accurate;-3.73096;-73.23963;PER;PER;Peru
Puerto Castilla;HNPCA;Sea;accurate;16.00621;-85.96904;HND;HND;Honduras
Corinto;NICIO;Sea;accurate;12.48084;-87.16871;NIC;NIC;Nicaragua
Matarani;PEMRI;Sea;accurate;-17.00167;-72.10884;;PER;
Chetumal;MXCTM;Sea;accurate;18.49295;-88.29911;MEX;MEX;Mexico
Ras Tanura;SARTA;Sea;accurate;26.64235;50.1585;SAU;SAU;Saudi Arabia
Derince;TRDRC;Sea;accurate;40.74981;29.83019;;TUR;
Samsun;TRSSX;Sea;accurate;41.30185;36.33565;TUR;TUR;Turkey
Caldera;CLCLD;Sea;accurate;-27.06112;-70.83274;CHL;CHL;Chile
Golfito;CRGLF;Sea;accurate;8.63716;-83.16787;CRI;CRI;Costa Rica
Fatsa;TRFAS;Sea;accurate;41.04402;37.48562;TUR;TUR;Turkey
Cesme;TRCES;Sea;accurate;38.32184;26.29818;TUR;TUR;Turkey
Vacamonte;PAVAC;Sea;accurate;8.86448;-79.67203;PAN;PAN;Panama
Parana;ARPRA;River;accurate;-31.71916;-60.52166;ARG;ARG;Argentina
Ibicuy;ARIBY;River;accurate;-33.74137;-59.17411;ARG;ARG;Argentina
Caripito;VECAR;Unknown;approximate;10.12887;-63.09018;VEN;VEN;Venezuela
Androka;MGADK;Sea;accurate;-25.00382;44.12242;MDG;MDG;Madagascar
Arecibo;PRARE;Sea;accurate;18.48132;-66.7009;PRI;PRI;Puerto Rico
Paraiso;PAPAI;Sea;accurate;9.0253;-79.621;PAN;PAN;Panama
Las Mareas;PRLAM;Sea;accurate;17.93794;-66.1563;PRI;PRI;Puerto Rico
Aliaga;TRALI;Sea;accurate;38.80293;26.96204;TUR;TUR;Turkey
Takoradi;GHTKD;Sea;accurate;4.88503;-1.749;GHA;GHA;Ghana
Gelibolu;TRGEL;Sea;accurate;40.4062;26.67013;;TUR;
Pepel;SLPEP;Sea;accurate;8.57546;-13.05908;SLE;SLE;Sierra Leone
Winneba;GHWEA;Sea;approximate;5.33772;-0.61809;;GHA;
Warrenpoint;GBWPT;Sea;accurate;54.10303;-6.26438;GBR;GBR;U.K. of Great Britain and Northern Ireland
Kappeln;DEKAP;Sea;accurate;54.65652;9.93535;DEU;DEU;Germany
Wladyslawowo;PLWLA;Sea;accurate;54.79498;18.41342;POL;POL;Poland
Bandholm;DKBDX;Sea;accurate;54.83641;11.49047;DNK;DNK;Denmark
Kalundborg;DKKAL;Sea;accurate;55.67512;11.09898;DNK;DNK;Denmark
Kilchoan;GBKOA;Sea;accurate;56.69176;-6.09707;GBR;GBR;U.K. of Great Britain and Northern Ireland
Falkenberg;SEFAG;Sea;accurate;56.89034;12.47979;SWE;SWE;Sweden
Aalborg;DKAAL;Sea;accurate;57.04611;9.93831;DNK;DNK;Denmark
Mariestad;SEMAD;Sea;accurate;58.71676;13.81963;SWE;SWE;Sweden
Kristinehamn;SEKHN;Sea;accurate;59.31509;14.08976;SWE;SWE;Sweden
Skelleftehamn;SESKE;Sea;accurate;64.68635;21.25083;SWE;SWE;Sweden
Gavle;SEGVX;Sea;accurate;60.68715;17.15724;SWE;SWE;Sweden
Saint-Marc;;Unknown;accurate;19.10953;-72.70217;;HTI;
Panarukan;IDPRN;Sea;accurate;-7.6976;113.93394;IDN;IDN;Indonesia
Merauke;IDMKQ;Sea;accurate;-8.47877;140.39086;;IDN;
Kasim;IDKAS;Sea;accurate;-1.30664;131.02837;IDN;IDN;Indonesia
Mamuju;IDMJU;Sea;accurate;-2.66758;118.8942;;IDN;
Pantoloan;IDPTL;Sea;accurate;-0.70932;119.85742;IDN;IDN;Indonesia
Cardenas;CUCAR;Sea;accurate;23.04682;-81.19493;CUB;CUB;Cuba
Ceiba Hueca;CUCEI;Sea;accurate;20.22414;-77.32557;CUB;CUB;Cuba
Puerto Cabezas;NIPUZ;Sea;accurate;14.02004;-83.38501;NIC;NIC;Nicaragua
Chekka;;Unknown;accurate;34.32698;35.72336;;LBN;
El Qalamoun;;Unknown;accurate;34.38993;35.78766;LBN;LBN;Lebanon
Port Stanley;CAPST;Lake;accurate;42.6613;-81.21262;CAN;CAN;Canada
Beppu;;Sea;accurate;33.30222;131.50361;JPN;JPN;Japan
Charleston;USCHS;Sea;accurate;32.79076;-79.92627;USA;USA;United States of America
Oceanside;USXJX;Sea;accurate;33.19456;-117.38386;USA;USA;United States of America
Huntington Beach;USHTD;Sea;accurate;33.65665;-118.0024;USA;USA;United States of America
Kenosha;USENW;Lake;accurate;42.5836;-87.81386;USA;USA;United States of America
New Orleans;;Unknown;accurate;29.94223;-90.06162;USA;USA;United States of America
Dunkirk;;Unknown;accurate;42.4883;-79.33511;USA;USA;United States of America
Balanacan;;Sea;accurate;13.5333;121.8657;;PHL;
Kake;USKAE;Sea;accurate;56.96261;-133.92226;;USA;
Cape Town;ZACPT;Sea;accurate;-33.91804;18.45586;ZAF;ZAF;South Africa
Avondale;USAVD;Sea;accurate;29.92579;-90.18665;USA;USA;United States of America
Rimouski;CARIM;Sea;accurate;48.47677;-68.51287;CAN;CAN;Canada
Hilo;USITO;Sea;accurate;19.73037;-155.05365;USA;USA;United States of America
Melilla;ESMLN;Sea;accurate;35.2938;-2.93422;;ESP;
Harbour Grace;CAHRE;Sea;accurate;47.6908;-53.21924;;CAN;
Santa Cruz;;Sea;accurate;13.50508;122.04818;PHL;PHL;Philippines
Lisala;;River;accurate;2.14183;21.51992;COD;COD;Democratic Republic of the Congo
El Aabde;;Unknown;accurate;34.51918;35.97785;LBN;LBN;Lebanon
Mutarara;;Unknown;accurate;-17.44142;35.06727;MOZ;MOZ;Mozambique
Bagnoli;ITBLN;Sea;accurate;40.80941;14.16965;ITA;ITA;Italy
Gijon;ESGIJ;Sea;accurate;43.55034;-5.6929;ESP;ESP;Spain
Constanta;ROCND;Sea;accurate;44.16453;28.6419;ROU;ROU;Romania
Vallvik;SEVAL;Sea;accurate;61.19035;17.17351;SWE;SWE;Sweden
Essaouira;;Sea;accurate;31.51004;-9.77356;MAR;MAR;Morocco
Sandnessjoen;NOSSJ;Sea;accurate;66.02528;12.63441;NOR;NOR;Norway
Skjervoy;NOSKY;Sea;accurate;70.02859;20.97476;NOR;NOR;Norway
Termoli;ITTMI;Sea;accurate;42.00081;14.99872;;ITA;
Santander;ESSDR;Sea;accurate;43.46274;-3.79649;ESP;ESP;Spain
Kabala;;River;accurate;-8.00259;26.84851;COD;COD;Democratic Republic of the Congo
Hennebont;FRHET;Sea;accurate;47.80298;-3.27754;FRA;FRA;France
Mayamba;;River;unknown;-6.47391;16.73467;COD;COD;Democratic Republic of the Congo
Portici;ITPTC;Sea;accurate;40.84361;14.26006;ITA;ITA;Italy
Bari;ITBRI;Sea;accurate;41.13093;16.8501;;ITA;
Macabi;;Sea;accurate;20.90401;-75.72809;CUB;;Cuba
Harlingen;NLHAR;Sea;accurate;53.18368;5.42629;NLD;NLD;Netherlands
Tshimbane;;River;accurate;-4.0089;18.16121;COD;COD;Democratic Republic of the Congo
Honsater;SEHON;Sea;accurate;58.63536;13.44097;SWE;SWE;Sweden
Ristiina;FIRIS;River;accurate;61.50152;27.26374;FIN;FIN;Finland
Kuopio;FIKUO;River;accurate;62.87669;27.67483;FIN;FIN;Finland
Chola;;Unknown;approximate;-17.37891;35.00592;MOZ;MOZ;Mozambique
Chemba;;Unknown;approximate;-17.17097;34.89773;MOZ;MOZ;Mozambique
Fond Mombin;HTFOM;Sea;accurate;18.71136;-72.38863;;HTI;
Bourem;;River;accurate;16.95239;-0.35455;MLI;MLI;Mali
Bamba;;River;accurate;17.032;-1.40411;MLI;MLI;Mali
Maintirano;MGMXT;Sea;accurate;-18.06202;44.0181;MDG;MDG;Madagascar
Borongan;PHBGV;Sea;accurate;11.60648;125.43989;PHL;PHL;Philippines
Aroroy;;Sea;accurate;12.51315;123.39758;PHL;PHL;Philippines
Kaukauna;USKAU;Lake;accurate;44.27755;-88.26452;USA;USA;United States of America
Palembang;IDPLM;River;accurate;-2.98041;104.77893;IDN;IDN;Indonesia
Pasni;PKPSI;Sea;accurate;25.26329;63.47646;PAK;PAK;Pakistan
Kialo;;River;accurate;-6.29605;26.92444;COD;COD;Democratic Republic of the Congo
Ipaka;;River;approximate;-4.97708;17.51169;COD;COD;Democratic Republic of the Congo
Chatham;CACTM;Sea;accurate;47.02933;-65.47225;CAN;CAN;Canada
Fort Liberte;HTFLI;Unknown;accurate;19.66192;-71.82623;;HTI;
Blind River;CABLR;Lake;accurate;46.18043;-82.96469;CAN;CAN;Canada
Harrisville;USHVW;Lake;accurate;44.65878;-83.28734;USA;USA;United States of America
Makelele;;River;accurate;-1.75511;29.03895;COD;COD;Democratic Republic of the Congo
Bialla;PGBAA;Unknown;accurate;-5.30908;151.00902;PNG;PNG;Papua New Guinea
Vanimo;PGVAI;Unknown;accurate;-2.6783;141.29612;;PNG;
Jeremie;HTJEE;Unknown;accurate;18.64294;-74.11205;HTI;HTI;Haiti
Oakville;CAOAK;Lake;accurate;43.44066;-79.66886;CAN;CAN;Canada
Revere;USRVR;Sea;accurate;42.39857;-71.00907;USA;USA;United States of America
Eastport;USEPM;Sea;accurate;44.90667;-66.98454;;USA;
Dingwall;CADWL;Sea;accurate;46.90291;-60.46144;CAN;CAN;Canada
Good Hope;USGDH;Sea;accurate;29.9902;-90.40055;USA;USA;United States of America
Port Wentworth;USPWN;Sea;accurate;32.14428;-81.14339;USA;USA;United States of America
Bridgeport;USBDR;Sea;accurate;41.17088;-73.18258;;USA;
Arichat;CAARI;Sea;accurate;45.51042;-61.01811;CAN;CAN;Canada
Vancouver;USBCC;Sea;accurate;45.64387;-122.72148;USA;USA;United States of America
Astoria;USAST;Sea;accurate;46.18569;-123.86155;USA;USA;United States of America
Catalina;CACAT;Sea;accurate;48.51538;-53.07647;;CAN;
Crofton;CACRO;Sea;accurate;48.86554;-123.64039;CAN;CAN;Canada
Port Sulphur;USSUL;Sea;accurate;29.47127;-89.69846;USA;USA;United States of America
Antioch;USANZ;Sea;accurate;38.01856;-121.81986;USA;USA;United States of America
Marion;USMZZ;Sea;accurate;41.70424;-70.76122;;USA;
Yarmouth;CAYQI;Sea;accurate;43.83333;-66.12236;CAN;CAN;Canada
Morristown;USMJG;Sea;accurate;44.59051;-75.65098;USA;USA;United States of America
Zeballos;CAZEB;Sea;accurate;49.97875;-126.84496;CAN;CAN;Canada
Ketchikan;USKTN;Sea;accurate;55.3543;-131.69083;USA;USA;United States of America
Edmonds;USEOW;Sea;accurate;47.81171;-122.38158;USA;USA;United States of America
Orehoved;DKORE;Sea;accurate;54.95631;11.85116;DNK;DNK;Denmark
Vordingborg;DKVOR;Sea;accurate;54.99455;11.88504;DNK;DNK;Denmark
Limhamn;SELIM;Sea;accurate;55.58977;12.92768;SWE;SWE;Sweden
Ayr;GBAYR;Sea;accurate;55.46915;-4.63817;GBR;GBR;U.K. of Great Britain and Northern Ireland
Kalamaki;GRKLM;Sea;approximate;37.91789;23.01012;GRC;GRC;Greece
Vieste;ITVIE;Sea;accurate;41.88541;16.17253;ITA;ITA;Italy
Senj;HRSEN;Sea;accurate;44.98997;14.90051;HRV;HRV;Croatia
La Pallice;FRLPE;Sea;accurate;46.16014;-1.21809;FRA;FRA;France
Langesund;NOLAD;Sea;accurate;59.00354;9.74891;NOR;NOR;Norway
Paskallavik;SEPAS;Sea;accurate;57.16234;16.46489;SWE;SWE;Sweden
Gary;USGYY;Lake;accurate;41.66337;-87.42196;USA;USA;United States of America
Amherstburg;CAAMH;Lake;accurate;42.09686;-83.11307;;CAN;
Benicia;USBNC;Sea;accurate;38.04441;-122.14066;USA;USA;United States of America
Fort Bragg;USFOB;Sea;accurate;39.42454;-123.80371;USA;USA;United States of America
New Haven;USHVN;Sea;accurate;41.2932;-72.9035;USA;USA;United States of America
Mossel Bay;ZAMZY;Sea;accurate;-34.17984;22.14968;ZAF;ZAF;South Africa
Kilwa Kivinje;TZKIK;Sea;accurate;-8.74605;39.41382;;TZA;
Maizuru;JPMAI;Sea;accurate;35.4531;135.31291;JPN;JPN;Japan
Kayts;LKKAY;Sea;accurate;9.7023;79.86324;LKA;LKA;Sri Lanka
Encarnacion;PYENO;River;accurate;-27.32011;-55.86762;PRY;PRY;Paraguay
Ciudad Bolivar;VECBL;River;accurate;8.14395;-63.55457;VEN;VEN;Venezuela
Nesseby;NONSB;Sea;accurate;70.14803;28.87949;NOR;NOR;Norway
Appledore;GBAPP;Sea;approximate;51.05204;-4.19793;GBR;GBR;U.K. of Great Britain and Northern Ireland
Ramsgate;GBRMG;Sea;accurate;51.32987;1.40864;GBR;GBR;U.K. of Great Britain and Northern Ireland
Padstow;GBPAD;Sea;accurate;50.54109;-4.93756;GBR;GBR;U.K. of Great Britain and Northern Ireland
Hamble;GBHAM;Sea;approximate;50.81578;-1.31604;GBR;GBR;U.K. of Great Britain and Northern Ireland
Maastricht;NLMST;Sea;accurate;50.88614;5.71641;NLD;NLD;Netherlands
Bridgwater;GBBRW;Sea;accurate;51.16219;-2.98881;GBR;GBR;U.K. of Great Britain and Northern Ireland
Zeebrugge;BEZEE;Sea;accurate;51.33354;3.19069;BEL;BEL;Belgium
Newport;GBNPT;Sea;accurate;51.55837;-2.98625;GBR;GBR;U.K. of Great Britain and Northern Ireland
Emmerich;DEEMM;Sea;accurate;51.82956;6.25112;DEU;DEU;Germany
Waterford;IEWAT;Sea;accurate;52.26116;-7.1061;IRL;IRL;Ireland
Tralee;IETRA;Sea;accurate;52.25869;-9.73572;IRL;IRL;Ireland
Elsfleth;DEELS;Sea;accurate;53.22822;8.46256;DEU;DEU;Germany
Warrington;GBWRN;Sea;accurate;53.38636;-2.60581;GBR;GBR;U.K. of Great Britain and Northern Ireland
Gabes;TNGAE;Sea;accurate;33.91428;10.09693;TUN;TUN;Tunisia
Rabat;MARBA;Sea;accurate;34.0303;-6.84224;MAR;MAR;Morocco
Mategata;JPMAG;Sea;accurate;34.10718;132.97115;JPN;JPN;Japan
Miyaura;JPOMS;Sea;accurate;34.25051;132.99387;JPN;JPN;Japan
Toba;JPTOB;Sea;accurate;34.48845;136.8437;JPN;JPN;Japan
Mostaganem;DZMOS;Sea;accurate;35.93473;0.07992;DZA;DZA;Algeria
Dellys;DZDEL;Sea;accurate;36.91636;3.91685;;DZA;
Krabi;THKBV;Sea;accurate;8.04693;98.90876;THA;THA;Thailand
Kure;JPKRE;Sea;accurate;34.24276;132.54362;JPN;JPN;Japan
Santo Antonio;STSAA;Sea;accurate;1.6443;7.4214;STP;STP;Sao Tome and Principe
Zamboanga;PHBLU;Sea;accurate;6.90241;122.07734;PHL;PHL;Philippines
Mati;PHMXI;Sea;accurate;6.95073;126.219;PHL;PHL;Philippines
Buna;PGBNA;Unknown;approximate;-8.6715;148.41268;;PNG;
Bluff;NZBLU;Sea;accurate;-46.59832;168.34374;;NZL;
Kingscote;AUKGC;Sea;accurate;-35.65566;137.6387;AUS;AUS;Australia
Broome;AUBME;Sea;accurate;-18.004;122.20754;AUS;AUS;Australia
Ilheus;BRIOS;Sea;accurate;-14.7839;-39.0321;BRA;BRA;Brazil
Aracaju;BRAJU;Sea;accurate;-10.90783;-37.04809;BRA;BRA;Brazil
Taiohae;PFTAI;Sea;accurate;-8.92178;-140.0947;PYF;PYF;French Polynesia
Miri;MYMYY;Sea;accurate;4.38349;113.97317;MYS;MYS;Malaysia
Bagan Luar;MYBWH;Sea;accurate;5.41034;100.37337;MYS;MYS;Malaysia
Sandakan;MYSDK;Sea;accurate;5.83815;118.11667;MYS;MYS;Malaysia
Anamur;TRANA;Sea;accurate;36.06969;32.86657;TUR;TUR;Turkey
Pampatar;VEPMP;Sea;accurate;10.97748;-63.81914;VEN;VEN;Venezuela
Jimenez;PHJNZ;Sea;accurate;8.33247;123.85658;PHL;PHL;Philippines
Wenzhou;CNWNZ;Sea;accurate;27.96918;120.80708;CHN;CHN;China
Hamada;JPHMD;Sea;approximate;34.88376;132.06322;JPN;JPN;Japan
Edincik;TREDK;Sea;accurate;40.36566;27.86879;TUR;TUR;Turkey
Mangalia;ROMAG;Sea;accurate;43.80999;28.58539;ROU;ROU;Romania
Rapid Bay;AURAB;Sea;approximate;-35.52642;138.19019;AUS;AUS;Australia
Port Pirie;AUPPI;Sea;accurate;-33.17085;138.01269;AUS;AUS;Australia
Port Augusta;AUPUG;Sea;accurate;-32.49392;137.76029;AUS;AUS;Australia
Geraldton;AUGET;Sea;accurate;-28.77672;114.59219;AUS;AUS;Australia
Aburatsu;JPABU;Sea;accurate;31.57224;131.40873;JPN;JPN;Japan
Minamata;JPMIN;Sea;approximate;32.21901;130.39991;JPN;JPN;Japan
Sasebo;JPSSB;Sea;accurate;33.16377;129.72268;JPN;JPN;Japan
Karatsu;JPKAR;Sea;accurate;33.46868;129.95937;JPN;JPN;Japan
Akkeshi;JPAKE;Sea;accurate;43.04502;144.84843;JPN;JPN;Japan
Darwin;AUDRW;Sea;accurate;-12.46467;130.84742;AUS;AUS;Australia
Tanjong Pagar;SGTPG;Sea;accurate;1.2674;103.84073;SGP;SGP;Singapore
Semporna;MYSMM;Sea;approximate;4.47823;118.6081;MYS;MYS;Malaysia
Bandar Seri Begawan;BNBWN;Sea;accurate;4.87558;114.951;BRN;BRN;Brunei Darussalam
Paranam;SRPRM;Sea;accurate;5.60895;-55.08756;SUR;SUR;Suriname
Bartica;GYGFO;Sea;accurate;6.3964;-58.62054;GUY;GUY;Guyana
Port Holland;PHPHD;Sea;accurate;6.54593;121.86911;PHL;PHL;Philippines
Quilon;INQUI;Sea;accurate;8.87821;76.58332;IND;IND;India
Tolong;PHTLG;Sea;accurate;9.36794;122.80113;PHL;PHL;Philippines
Coro;VECZE;Sea;accurate;11.45946;-69.57089;VEN;VEN;Venezuela
Cuddalore;INCDL;Sea;accurate;11.71659;79.77497;IND;IND;India
Matsunaga;JPMNG;Sea;accurate;34.43983;133.2563;JPN;JPN;Japan
Hibi;JPHIB;Sea;accurate;34.45187;133.92778;JPN;JPN;Japan
Yokkaichi;JPYKK;Sea;accurate;34.95443;136.63247;JPN;JPN;Japan
Ishinomaki;JPISM;Sea;accurate;38.41709;141.28636;JPN;JPN;Japan
Dalian;CNDLC;Sea;accurate;38.93866;121.6025;CHN;CHN;China
Belomorsk;RUBEM;Sea;accurate;64.52839;34.7845;RUS;RUS;Russian Federation
Pelotas;BRPET;River;accurate;-31.78186;-52.33336;BRA;BRA;Brazil
Puerto Ayacucho;VEPYH;River;accurate;5.69592;-67.61645;VEN;VEN;Venezuela
Anqing;CNAQG;River;accurate;30.50505;117.02234;CHN;CHN;China
Tongling;CNTOL;River;accurate;30.98313;117.77275;CHN;CHN;China
Santos;BRSSZ;Sea;accurate;-23.96263;-46.29356;BRA;BRA;Brazil
Puerto Caldera;CRCAL;Sea;accurate;9.91275;-84.71524;;CRI;
Lazaro Cardenas;MXLZC;Sea;accurate;17.95308;-102.17372;MEX;MEX;Mexico
Manzanillo;MXZLO;Sea;accurate;19.053;-104.31505;MEX;MEX;Mexico
Mazatlan;MXMZT;Sea;accurate;23.18716;-106.42091;MEX;MEX;Mexico
Quequen;ARQQN;Sea;accurate;-38.57627;-58.70127;ARG;ARG;Argentina
Itajai;BRITJ;Sea;accurate;-26.91097;-48.655;BRA;BRA;Brazil
Antofagasta;CLANF;Sea;accurate;-23.6492;-70.40326;CHL;CHL;Chile
Vitoria;BRVIX;Sea;accurate;-20.32233;-40.33729;;BRA;
Mahanoro;MGVVB;Sea;accurate;-19.89986;48.8008;MDG;MDG;Madagascar
Cristobal;PACTB;Sea;accurate;9.33755;-79.90726;PAN;PAN;Panama
Quemchi;CLQMC;Sea;accurate;-42.14249;-73.47714;CHL;CHL;Chile
Cotabato;PHCBO;Sea;accurate;7.25253;124.2012;;PHL;
La Libertad;SVLLD;Sea;accurate;13.48703;-89.3193;SLV;SLV;El Salvador
Finike;TRFIN;Sea;accurate;36.29548;30.14774;TUR;TUR;Turkey
Christiansted;VICTD;Sea;accurate;17.7475;-64.69746;VIR;VIR;United States Virgin Islands
Nueva Palmira;UYNVP;Sea;accurate;-33.87046;-58.41582;URY;URY;Uruguay
Tocopilla;CLTOQ;Sea;accurate;-22.09614;-70.2089;CHL;CHL;Chile
Carupano;VECUP;Sea;accurate;10.6742;-63.24283;VEN;VEN;Venezuela
Coatzacoalcos;MXCOA;Sea;accurate;18.13229;-94.41634;MEX;MEX;Mexico
Mayaguez;PRMAZ;Sea;accurate;18.21608;-67.15729;;PRI;
Andros Town;BSASD;Sea;accurate;24.72414;-77.78554;BHS;BHS;Bahamas
Nassau;BSNAS;Sea;accurate;25.07489;-77.32629;BHS;BHS;Bahamas
Gorele;TRGOR;Sea;accurate;41.03658;39.00122;;TUR;
Campana;ARCMP;River;accurate;-34.15498;-58.95209;ARG;ARG;Argentina
Zarate;ARZAE;River;accurate;-34.11436;-58.98641;ARG;ARG;Argentina
Rosario;ARROS;River;accurate;-32.977;-60.61863;ARG;ARG;Argentina
Pekalongan;IDPEX;Sea;accurate;-6.85925;109.69192;IDN;IDN;Indonesia
Luwuk;IDLUW;Sea;accurate;-0.9534;122.79624;;IDN;
Matanzas;CUQMA;Sea;accurate;23.0655;-81.54034;;CUB;
Diamante;ARDME;River;accurate;-32.05854;-60.6453;ARG;ARG;Argentina
Eccles;GBECS;Sea;accurate;53.47829;-2.33868;GBR;GBR;U.K. of Great Britain and Northern Ireland
Castro;CLWCA;Sea;accurate;-42.4808;-73.75895;CHL;CHL;Chile
Arica;CLARI;Sea;accurate;-18.47636;-70.3223;CHL;CHL;Chile
Doha;QADOH;Sea;accurate;25.2971;51.54923;;QAT;
Port Harcourt;NGPHC;Sea;accurate;4.77544;7.00264;NGA;NGA;Nigeria
Buchanan;LRUCN;Sea;accurate;5.85867;-10.0501;;LBR;
Ziguinchor;SNZIG;River;accurate;12.58787;-16.2682;SEN;SEN;Senegal
Kpeme;TGKPE;Sea;accurate;6.2095;1.51489;TGO;TGO;Togo
Jask;IRJAK;Sea;accurate;25.64535;57.76687;IRN;IRN;Iran  (Islamic Republic of)
Wilhelmshaven;DEWVN;Sea;accurate;53.5275;8.16336;;DEU;
Fleetwood;GBFLE;Sea;accurate;53.91786;-3.00947;GBR;GBR;U.K. of Great Britain and Northern Ireland
Iskenderun;TRISK;Sea;accurate;36.5935;36.18749;TUR;TUR;Turkey
Bangor;GBBNG;Sea;accurate;54.66468;-5.66821;GBR;GBR;U.K. of Great Britain and Northern Ireland
Gelting;DEGEL;Sea;accurate;54.75585;9.878;DEU;DEU;Germany
Torekov;SETOV;Sea;accurate;56.42821;12.6318;SWE;SWE;Sweden
Coleraine;GBCLR;Sea;accurate;55.14429;-6.67533;GBR;GBR;U.K. of Great Britain and Northern Ireland
Sakskobing;DKSAX;Sea;accurate;54.80237;11.63648;DNK;DNK;Denmark
Horsens;DKHOR;Sea;accurate;55.85679;9.86;DNK;DNK;Denmark
Aberdeen;GBABD;Sea;accurate;57.14469;-2.08749;GBR;GBR;U.K. of Great Britain and Northern Ireland
Halden;NOHAL;Sea;accurate;59.11839;11.37106;NOR;NOR;Norway
Fredrikstad;NOFRK;Sea;accurate;59.21062;10.9219;NOR;NOR;Norway
Vanersborg;SEVAN;Sea;accurate;58.38356;12.3172;SWE;SWE;Sweden
Port Esquivel;JMPEV;Sea;accurate;17.89081;-77.13249;JAM;JAM;Jamaica
Skogby;FISKB;Sea;accurate;59.91814;23.30967;FIN;FIN;Finland
Hallstavik;SEHAK;Sea;approximate;60.06023;18.59772;SWE;SWE;Sweden
Rauma;FIRAU;Sea;accurate;61.12755;21.45818;FIN;FIN;Finland
Hudiksvall;SEHUV;Sea;accurate;61.72441;17.11263;SWE;SWE;Sweden
Tornio;FITOR;Sea;accurate;65.85204;24.15261;SWE;FIN;Sweden
Batskarsnas;SEBAT;Sea;accurate;65.78675;23.42665;SWE;SWE;Sweden
Sete;FRSET;Sea;accurate;43.40707;3.70148;FRA;FRA;France
Trollhattan;SETHN;Sea;accurate;58.29849;12.30472;SWE;SWE;Sweden
Batroun;;Unknown;accurate;34.25713;35.65675;;LBN;
Tumaco;COTCO;Sea;accurate;1.81906;-78.73142;;COL;
Kalianget;IDKAT;Sea;accurate;-7.04475;113.94658;IDN;IDN;Indonesia
Bontang;IDBXT;Sea;accurate;0.08553;117.48763;;IDN;
Nouadhibou;MRNDB;Sea;accurate;20.91411;-17.0403;MRT;MRT;Mauritania
Guayabal;CUGYB;Sea;accurate;20.68881;-77.61715;;CUB;
Casilda;CUCAS;Sea;accurate;21.75277;-79.98983;;CUB;
Ilo;PEILQ;Sea;accurate;-17.64997;-71.34957;;PER;
Pisco;PEPIO;Sea;accurate;-13.70989;-76.21872;;PER;
Daru;PGDAU;Unknown;accurate;-9.06787;143.21051;PNG;PNG;Papua New Guinea
Port Credit;CAPCR;Lake;accurate;43.55165;-79.58368;CAN;CAN;Canada
Belleville;CABLV;Lake;accurate;44.15532;-77.37747;CAN;CAN;Canada
El Berbara;;Unknown;accurate;34.19237;35.63294;;LBN;
Kawaihae;USKWH;Sea;accurate;20.03518;-155.82664;;USA;
Rumonge;;River;accurate;-3.97865;29.43594;BDI;BDI;Burundi
Panama City;USPFN;Sea;accurate;30.15229;-85.66429;USA;USA;United States of America
Moss Landing;USMLG;Sea;accurate;36.80028;-121.7859;USA;USA;United States of America
Richmond;USRCH;Sea;accurate;37.94813;-122.38973;USA;USA;United States of America
Fenit;IEFEN;Sea;accurate;52.27757;-9.86482;IRL;IRL;Ireland
Portland;;Unknown;accurate;45.56364;-122.71282;USA;USA;United States of America
Bumbuli;;River;accurate;-3.39396;20.45982;COD;COD;Democratic Republic of the Congo
Bisenge;;River;approximate;-3.42477;19.78725;COD;COD;Democratic Republic of the Congo
Tubod;;Sea;approximate;8.05564;123.78983;;PHL;
Westwego;USWWO;Sea;accurate;29.91192;-90.13933;USA;USA;United States of America
Chandler;CACHR;Sea;accurate;48.34663;-64.6604;CAN;CAN;Canada
Victoria;CAVIC;Sea;accurate;48.43483;-123.3689;CAN;CAN;Canada
Nawiliwili;USNWL;Sea;accurate;21.95088;-159.35949;USA;USA;United States of America
Kikwit;;River;approximate;-5.0466;18.83855;COD;COD;Democratic Republic of the Congo
Dekese;;River;accurate;-3.49127;21.37175;COD;COD;Democratic Republic of the Congo
Brownsville;USBRO;Sea;accurate;25.89873;-97.49374;USA;USA;United States of America
Santa Clara;USSCZ;Sea;approximate;37.42916;-121.98066;USA;USA;United States of America
Stockton;USSCK;Sea;accurate;37.95057;-121.32441;USA;USA;United States of America
Oarai;;Sea;accurate;36.30985;140.57422;JPN;JPN;Japan
Boca Chica;DOBCC;Sea;accurate;18.42139;-69.63022;DOM;DOM;Dominican Republic
Norfolk;;Unknown;accurate;36.86882;-76.31627;USA;USA;United States of America
Invergordon;GBIVG;Sea;accurate;57.68864;-4.17668;GBR;GBR;U.K. of Great Britain and Northern Ireland
Ribadeo;ESRIB;Sea;accurate;43.53644;-7.03579;ESP;ESP;Spain
Arbatax;ITATX;Sea;accurate;39.93572;9.70325;ITA;ITA;Italy
Thasos;GRTSO;Sea;accurate;40.77924;24.70144;GRC;GRC;Greece
Sligo;IESLI;Sea;accurate;54.27677;-8.482;IRL;IRL;Ireland
Gdansk;PLGDN;Sea;accurate;54.39086;18.69361;POL;POL;Poland
Kesennuma;;Sea;accurate;38.88738;141.58847;JPN;JPN;Japan
Dartmouth;GBDTM;Sea;accurate;50.35065;-3.57737;GBR;GBR;U.K. of Great Britain and Northern Ireland
Palamos;ESPAL;Sea;accurate;41.84941;3.12342;ESP;ESP;Spain
Monkoto;;River;accurate;-1.74939;20.68058;COD;COD;Democratic Republic of the Congo
Treguier;FRTRE;Sea;accurate;48.78906;-3.22552;FRA;FRA;France
Rota;ESROT;Sea;accurate;36.62046;-6.35701;ESP;ESP;Spain
Adra;ESADR;Sea;approximate;36.75016;-3.02073;ESP;ESP;Spain
Siracusa;ITSIR;Sea;accurate;37.06879;15.29042;ITA;ITA;Italy
Mosango;;River;accurate;-4.7321;18.75383;COD;COD;Democratic Republic of the Congo
Grenaa;DKGRE;Sea;accurate;56.41422;10.92179;DNK;DNK;Denmark
Risor;NORIS;Sea;accurate;58.72017;9.23789;NOR;NOR;Norway
Balsta;SEBAA;Sea;accurate;59.5525;17.53598;SWE;SWE;Sweden
Boende;;River;accurate;-0.27632;20.87778;COD;COD;Democratic Republic of the Congo
Pucallpa;PEPCL;River;accurate;-8.38651;-74.52827;PER;PER;Peru
Imatra;FIIMA;River;accurate;61.17056;28.77589;FIN;FIN;Finland
Onitsha;;River;accurate;6.13492;6.76535;NGA;NGA;Nigeria
Jbail;;Sea;accurate;34.12244;35.64334;;LBN;
Gonaives;HTGVS;Sea;accurate;19.4513;-72.7162;;HTI;
Livorno;ITLIV;Sea;accurate;43.56892;10.30372;ITA;ITA;Italy
Miragoane;;Sea;accurate;18.44914;-73.1073;HTI;HTI;Haiti
San Antonio;;Sea;accurate;12.41214;124.27944;;PHL;
Tonka;;River;accurate;16.13098;-3.75233;MLI;MLI;Mali
Soalala;MGDWB;River;accurate;-16.10434;45.32918;MDG;MDG;Madagascar
Cam Ranh;;Sea;accurate;11.90338;109.14451;VNM;VNM;Viet Nam
Danao;;Sea;accurate;10.52123;124.02944;PHL;PHL;Philippines
San Fernando;PHSFE;Sea;accurate;16.60876;120.30097;PHL;PHL;Philippines
Manakara;MGWVK;Sea;accurate;-22.14144;48.02051;MDG;MDG;Madagascar
Bacon;;Sea;accurate;13.04099;124.04541;PHL;PHL;Philippines
Jebel Dhanna;AEJED;Unknown;accurate;24.18829;52.62573;;ARE;
Roxas;;Sea;accurate;12.5936;121.52968;;PHL;
Can Tho;VNVCA;River;accurate;9.98373;105.83577;VNM;VNM;Viet Nam
De Pere;USDRW;Lake;accurate;44.44925;-88.06903;USA;USA;United States of America
L'Anse;USLAJ;Lake;accurate;46.7579;-88.45647;;USA;
Manitowoc;USMTW;Lake;accurate;44.08983;-87.65146;USA;USA;United States of America
Kalehe;;River;accurate;-2.10473;28.91568;COD;COD;Democratic Republic of the Congo
Bondo;;River;accurate;-1.3551;24.08261;COD;COD;Democratic Republic of the Congo
Lotumbe;;River;approximate;-0.47035;19.38117;COD;COD;Democratic Republic of the Congo
Bathurst;CABAT;Sea;approximate;47.61618;-65.6575;CAN;CAN;Canada
Rabaul;PGRAB;Unknown;accurate;-4.20197;152.16447;PNG;PNG;Papua New Guinea
Digby;CADIG;Sea;accurate;44.62631;-65.75508;CAN;CAN;Canada
Juneau;USJNU;Sea;accurate;58.30297;-134.42728;;USA;
Yakutat;USYAK;Sea;accurate;59.54897;-139.73278;USA;USA;United States of America
Tyonek;USTYE;Sea;accurate;61.04712;-151.16775;USA;USA;United States of America
Hahnville;USHAH;Sea;accurate;29.98141;-90.4054;USA;USA;United States of America
Norco;USNCM;Sea;accurate;29.9958;-90.41099;USA;USA;United States of America
Beaumont;USBPT;Sea;accurate;30.0752;-94.08789;USA;USA;United States of America
Savannah;USSAV;Sea;accurate;32.09245;-81.10625;USA;USA;United States of America
Georgetown;USGGE;Sea;accurate;33.36697;-79.29113;USA;USA;United States of America
Baltimore;USBAL;Sea;accurate;39.26738;-76.58441;;USA;
Gardiner;USGDR;Sea;accurate;43.71315;-124.10423;USA;USA;United States of America
Port Hawkesbury;CAPHW;Sea;accurate;45.61481;-61.36482;CAN;CAN;Canada
Longview;USLOG;Sea;accurate;46.10456;-122.94792;USA;USA;United States of America
Palmetto;USPMT;Sea;accurate;27.51258;-82.56046;USA;USA;United States of America
Chemainus;CACHM;Sea;accurate;48.92544;-123.71447;CAN;CAN;Canada
Port Arthur;USPOA;Sea;accurate;29.8395;-93.95682;USA;USA;United States of America
Mobile;USMOB;Sea;accurate;30.66704;-88.03727;USA;USA;United States of America
Cambridge;USCGE;Sea;accurate;38.57508;-76.07216;;USA;
Salem;USSLM;Sea;accurate;42.52272;-70.88131;;USA;
Parrsboro;CAPAR;Sea;accurate;45.39192;-64.3191;CAN;CAN;Canada
Port Moody;CAPMO;Sea;accurate;49.28497;-122.86305;;CAN;
Ocean Falls;CAOFA;Sea;accurate;52.35257;-127.69288;CAN;CAN;Canada
Bella Coola;CABLC;Sea;accurate;52.37399;-126.79524;;CAN;
Haines;USHNS;Sea;accurate;59.23195;-135.44145;USA;USA;United States of America
Foynes;IEFOV;Sea;accurate;52.61279;-9.10193;IRL;IRL;Ireland
Marstal;DKMRS;Sea;accurate;54.85327;10.52236;DNK;DNK;Denmark
Sunderland;GBSUN;Sea;accurate;54.91372;-1.3606;GBR;GBR;U.K. of Great Britain and Northern Ireland
Oban;GBOBA;Sea;accurate;56.41202;-5.47656;GBR;GBR;U.K. of Great Britain and Northern Ireland
Sines;PTSIE;Sea;accurate;37.95336;-8.88662;PRT;PRT;Portugal
Arcachon;FRARC;Sea;accurate;44.66319;-1.16885;FRA;FRA;France
Dieppe;FRDPE;Sea;accurate;49.93457;1.08881;FRA;FRA;France
Galway;IEGWY;Sea;accurate;53.26928;-9.0512;IRL;IRL;Ireland
Ustka;PLUST;Sea;accurate;54.58629;16.85242;POL;POL;Poland
Nykobing Mors;DKNYM;Sea;accurate;56.79282;8.86377;DNK;DNK;Denmark
Oxelosund;SEOXE;Sea;accurate;58.66565;17.10592;SWE;SWE;Sweden
Skudeneshavn;NOSKU;Sea;accurate;59.14668;5.26744;NOR;NOR;Norway
Wyandotte;USWYD;Lake;accurate;42.21553;-83.14597;USA;USA;United States of America
Hydaburg;USHYG;Sea;accurate;55.20279;-132.82368;;USA;
Kilwa Masoko;TZKIM;Sea;accurate;-8.9396;39.50803;TZA;TZA;United Republic of Tanzania
Rorvik;NORVK;Sea;accurate;64.86048;11.23102;NOR;NOR;Norway
Seaham;GBSEA;Sea;accurate;54.83824;-1.32966;GBR;GBR;U.K. of Great Britain and Northern Ireland
Sharpness;GBSSS;Sea;accurate;51.72159;-2.47518;GBR;GBR;U.K. of Great Britain and Northern Ireland
Hartlepool;GBHTP;Sea;accurate;54.69663;-1.20539;GBR;GBR;U.K. of Great Britain and Northern Ireland
Monfalcone;ITMNF;Sea;accurate;45.79343;13.54282;ITA;ITA;Italy
Strasbourg;FRSXB;Sea;accurate;48.58066;7.78828;FRA;FRA;France
Abbeville;FRABB;Sea;accurate;50.10167;1.82755;FRA;FRA;France
Fowey;GBFOY;Sea;accurate;50.33523;-4.63446;GBR;GBR;U.K. of Great Britain and Northern Ireland
Teignmouth;GBTNM;Sea;accurate;50.54623;-3.50118;GBR;GBR;U.K. of Great Britain and Northern Ireland
Cowes;GBCOW;Sea;accurate;50.7621;-1.3005;GBR;GBR;U.K. of Great Britain and Northern Ireland
Fawley;GBFAW;Sea;accurate;50.83919;-1.34399;GBR;GBR;U.K. of Great Britain and Northern Ireland
Purfleet;GBPFT;Sea;accurate;51.47445;0.24459;GBR;GBR;U.K. of Great Britain and Northern Ireland
Oosterhout;NLOOS;Sea;accurate;51.66599;4.85058;NLD;NLD;Netherlands
Dordrecht;NLDOR;Sea;accurate;51.79266;4.64499;NLD;NLD;Netherlands
Wivenhoe;GBWIV;Sea;accurate;51.85308;0.96349;GBR;GBR;U.K. of Great Britain and Northern Ireland
Mistley;GBMIS;Sea;accurate;51.94393;1.08225;GBR;GBR;U.K. of Great Britain and Northern Ireland
Varberg;SEVAG;Sea;accurate;57.1073;12.24653;SWE;SWE;Sweden
Fosdyke;GBFDK;Sea;accurate;52.87184;-0.04164;GBR;GBR;U.K. of Great Britain and Northern Ireland
Pulupandan;PHPUL;Sea;accurate;10.51976;122.79597;;PHL;
Funabashi;JPOGA;Sea;accurate;35.6837;139.97735;JPN;JPN;Japan
Hatsukaichi;JPAKT;Sea;accurate;34.34854;132.34183;JPN;JPN;Japan
Tangier;MATNG;Sea;accurate;35.78242;-5.80628;MAR;MAR;Morocco
Shimonoseki;JPSHS;Sea;accurate;33.94069;130.92484;JPN;JPN;Japan
Tokuyama;JPTKY;Sea;accurate;34.04416;131.80316;JPN;JPN;Japan
Talasea;PGTLW;Unknown;accurate;-5.30028;150.03325;;PNG;
Akaroa;NZAKA;Sea;accurate;-43.80943;172.9613;;NZL;
Hobart;AUHBA;Sea;accurate;-42.8835;147.33205;AUS;AUS;Australia
Thames;NZTMZ;Sea;accurate;-37.14873;175.54689;NZL;NZL;New Zealand
Rio Grande;BRRIG;Sea;accurate;-32.04858;-52.07476;;BRA;
Mourilyan;AUMOU;Sea;accurate;-17.59912;146.12485;AUS;AUS;Australia
Bakapit;MYBKP;Sea;accurate;4.95262;118.58633;MYS;MYS;Malaysia
Catbalogan;PHCTS;Sea;accurate;11.77391;124.88078;PHL;PHL;Philippines
Tagbilaran;PHTAG;Sea;accurate;9.64892;123.85055;;PHL;
Beihai;CNBHY;Sea;accurate;21.47172;109.06403;CHN;CHN;China
Miyazu;JPMIY;Sea;accurate;35.53679;135.19952;JPN;JPN;Japan
Kiire;JPKII;Sea;accurate;31.37761;130.54828;JPN;JPN;Japan
Tsukumi;JPTMI;Sea;accurate;33.0766;131.86471;JPN;JPN;Japan
Cheju;KRCHA;Sea;accurate;33.52169;126.53972;;KOR;
Yosu;KRYOS;Sea;accurate;34.74586;127.67326;KOR;KOR;Republic of Korea
Nanao;JPNNO;Sea;accurate;37.05113;136.97669;JPN;JPN;Japan
Naoetsu;JPNAO;Sea;accurate;37.18455;138.25626;JPN;JPN;Japan
Kemi;FIKEM;Sea;accurate;65.66908;24.52572;FIN;FIN;Finland
Comodoro Rivadavia;ARCRD;Sea;accurate;-45.86212;-67.47091;ARG;ARG;Argentina
Motueka;NZMZP;Sea;accurate;-41.13609;173.02088;NZL;NZL;New Zealand
Napier;NZNPE;Sea;accurate;-39.47582;176.91415;;NZL;
Gisborne;NZGIS;Sea;accurate;-38.67633;178.02434;NZL;NZL;New Zealand
Auckland;NZAKL;Sea;accurate;-36.8436;174.77452;NZL;NZL;New Zealand
Ardrossan;AUARD;Sea;approximate;-34.43267;137.9151;AUS;AUS;Australia
Port Macquarie;AUPQQ;Sea;accurate;-31.42666;152.89481;AUS;AUS;Australia
Brisbane;AUBNE;Sea;accurate;-27.4428;153.07579;AUS;AUS;Australia
Rockhampton;AUROK;Sea;approximate;-23.38039;150.55963;AUS;AUS;Australia
Wyndham;AUWYN;Sea;accurate;-15.46147;128.10024;AUS;AUS;Australia
Los Organos;PELOO;Sea;accurate;-4.17876;-81.13356;PER;PER;Peru
Santana;BRSAN;Sea;accurate;-0.05696;-51.17469;;BRA;
Lundu;MYLUN;Sea;accurate;1.67051;109.85378;MYS;MYS;Malaysia
Karwar;INKRW;Sea;accurate;14.80136;74.11603;IND;IND;India
Shanwei;CNSWE;Sea;accurate;22.7801;115.34402;CHN;CHN;China
Miyako;JPMYK;Sea;accurate;39.64012;141.96927;JPN;JPN;Japan
Kwinana;AUKWI;Sea;accurate;-32.23544;115.76192;AUS;AUS;Australia
Porto Seguro;BRBPS;Sea;accurate;-16.45441;-39.06538;BRA;BRA;Brazil
Pasir Gudang;MYPGU;Sea;accurate;1.43695;103.90183;MYS;MYS;Malaysia
Toledo;PHTLD;Sea;accurate;10.37588;123.63519;PHL;PHL;Philippines
Pondicherry;INPNY;Sea;accurate;11.92321;79.83362;IND;IND;India
Laoag;PHLAO;Sea;accurate;18.19264;120.59262;PHL;PHL;Philippines
Jakhau;INJAK;Sea;accurate;23.23798;68.6067;IND;IND;India
Kotka;FIKTK;Sea;accurate;60.47253;26.94968;FIN;FIN;Finland
Fukue;JPFUJ;Sea;accurate;32.69543;128.8499;JPN;JPN;Japan
Tonghae;KRTGH;Sea;accurate;37.49252;129.12702;KOR;KOR;Republic of Korea
Gremikha;RUGRH;Sea;accurate;68.05372;39.52335;RUS;RUS;Russian Federation
Severomorsk;RUSRM;Sea;accurate;69.07755;33.41428;RUS;RUS;Russian Federation
Jiujiang;CNJIU;River;accurate;29.7241;115.96763;CHN;CHN;China
Zhenjiang;CNZHE;River;accurate;32.18894;119.62842;CHN;CHN;China
Porto Velho;BRPVH;River;accurate;-8.74392;-63.91815;BRA;BRA;Brazil
Alanya;TRALA;Sea;accurate;36.53688;31.99813;TUR;TUR;Turkey
Talcahuano;CLTAL;Sea;accurate;-36.693;-73.09996;CHL;CHL;Chile
Pamatacual;VEPAM;Sea;accurate;10.24104;-64.57942;VEN;VEN;Venezuela
Ashdod;ILASH;Sea;accurate;31.82475;34.6482;ISR;ISR;Israel
Itaqui;BRITQ;Sea;accurate;-2.57941;-44.36798;BRA;BRA;Brazil
Szczecin;PLSZZ;Sea;accurate;53.42766;14.57382;POL;POL;Poland
Guaymas;MXGYM;Sea;accurate;27.91859;-110.872;MEX;MEX;Mexico
Izmir;TRIZM;Sea;accurate;38.44191;27.15477;TUR;TUR;Turkey
Puntarenas;CRPAS;Sea;accurate;9.97724;-84.84824;;CRI;
Jeddah;SAJED;Sea;accurate;21.46388;39.17029;SAU;SAU;Saudi Arabia
Chaguaramas;TTCHA;Sea;accurate;10.68183;-61.64777;TTO;TTO;Trinidad and Tobago
Kingstown;VCKTN;Sea;accurate;13.14924;-61.22284;VCT;VCT;Saint Vincent and the Grenadines
Belize City;BZBZE;Sea;accurate;17.49392;-88.18636;BLZ;BLZ;Belize
Frederiksted;VIFRD;Sea;accurate;17.71438;-64.88363;VIR;VIR;United States Virgin Islands
San Carlos;MXSCR;Sea;accurate;24.78903;-112.11705;;MEX;
Ushuaia;ARUSH;Sea;accurate;-54.80275;-68.30147;ARG;ARG;Argentina
Iquique;CLIQQ;Sea;accurate;-20.20777;-70.15618;CHL;CHL;Chile
Almirante;PAPAM;Sea;accurate;9.28895;-82.39136;PAN;PAN;Panama
Puerto Cortes;HNPCR;Sea;accurate;15.84178;-87.9404;HND;HND;Honduras
Banggai;IDBGG;Sea;accurate;-1.5901;123.49918;IDN;IDN;Indonesia
Mariel;CUMAR;Sea;accurate;23.00816;-82.76352;CUB;CUB;Cuba
Manzanillo;CUMZO;Sea;accurate;20.35252;-77.11854;CUB;CUB;Cuba
La Romana;DOLRM;Sea;accurate;18.41689;-68.96052;DOM;DOM;Dominican Republic
Salina Cruz;MXSCX;Sea;accurate;16.16581;-95.20241;MEX;MEX;Mexico
Basseterre;KNBAS;Sea;accurate;17.28856;-62.70804;KNA;KNA;Saint Kitts and Nevis
Nueva Gerona;CUGER;Sea;accurate;21.88758;-82.80101;CUB;CUB;Cuba
Rock Sound;BSRSD;Sea;accurate;24.86793;-76.16101;BHS;BHS;Bahamas
Tasucu;TRTAS;Sea;accurate;36.31419;33.89405;TUR;TUR;Turkey
Bodrum;TRBXN;Sea;accurate;37.03359;27.43014;TUR;TUR;Turkey
San Lorenzo;ARSLO;River;accurate;-32.73494;-60.72839;ARG;ARG;Argentina
Matanzas;VEMTV;River;accurate;8.2862;-62.83687;VEN;VEN;Venezuela
Sambava;MGSVB;Sea;accurate;-14.25454;50.15028;MDG;MDG;Madagascar
Pedregal;PAPED;Sea;accurate;8.36288;-82.43725;PAN;PAN;Panama
Livingston;GTLIV;Sea;accurate;15.82449;-88.74929;;GTM;
Ordu;TRORD;Sea;accurate;40.99546;37.87507;TUR;TUR;Turkey
Gizo;SBGZO;Sea;accurate;-8.10375;156.84461;;SLB;
Pebane;MZPEB;Sea;accurate;-17.29381;38.13973;MOZ;MOZ;Mozambique
Greenville;LRGRE;Sea;accurate;4.98857;-9.03938;;LBR;
Ras Gharib;EGRAG;Sea;approximate;28.36661;33.08063;EGY;EGY;Egypt
Clifden;IECLI;Sea;accurate;53.48625;-10.02926;IRL;IRL;Ireland
Schleswig;DESLS;Sea;accurate;54.51224;9.5573;DEU;DEU;Germany
Cairnryan;GBCYN;Sea;accurate;54.96445;-5.01415;GBR;GBR;U.K. of Great Britain and Northern Ireland
Ronne;DKRNN;Sea;accurate;55.09309;14.69267;DNK;DNK;Denmark
Naestved;DKNVD;Sea;accurate;55.22449;11.7542;DNK;DNK;Denmark
Rudkobing;DKRKB;Sea;accurate;54.93987;10.7099;DNK;DNK;Denmark
Skive;DKSKV;Sea;accurate;56.5691;9.04909;DNK;DNK;Denmark
Norresundby;DKNRS;Sea;accurate;57.06449;9.90373;DNK;DNK;Denmark
Rekefjord;NOREK;Sea;accurate;58.33722;6.2548;NOR;NOR;Norway
Porsgrunn;NOPOR;Sea;accurate;59.12336;9.61708;NOR;NOR;Norway
Sarpsborg;NOSPG;Sea;accurate;59.26861;11.10291;NOR;NOR;Norway
Karlstad;SEKSD;Sea;accurate;59.37138;13.52462;SWE;SWE;Sweden
Drammen;NODRM;Sea;accurate;59.73301;10.23376;NOR;NOR;Norway
Ocho Rios;JMOCJ;Sea;accurate;18.40765;-77.10971;;JAM;
Levanger;NOLEV;Sea;accurate;63.75243;11.29719;NOR;NOR;Norway
Le Treport;FRLTR;Sea;accurate;50.0613;1.37096;FRA;FRA;France
Lorain;USLOR;Lake;accurate;41.4698;-82.18465;;USA;
Noro;SBNOR;Unknown;accurate;-8.22155;157.19949;SLB;SLB;Solomon islands
Two Rivers;USTWR;Lake;accurate;44.14554;-87.56585;USA;USA;United States of America
Baytown;USHPY;Sea;accurate;29.72874;-95.01913;USA;USA;United States of America
Pascagoula;USPGL;Sea;accurate;30.34884;-88.56246;;USA;
Probolinggo;IDPRO;Sea;accurate;-7.72999;113.2179;;IDN;
Lembar;IDAMP;Sea;accurate;-8.73027;116.07257;IDN;IDN;Indonesia
Bima;IDBMU;Sea;accurate;-8.44936;118.71664;;IDN;
La Libertad;ECLLD;Sea;accurate;-2.21996;-80.92234;ECU;ECU;Ecuador
Media Luna;CUMEL;Sea;accurate;20.1583;-77.44213;CUB;CUB;Cuba
Supe;PESUP;Sea;accurate;-10.80044;-77.74545;PER;PER;Peru
Cartagena;;Unknown;accurate;37.59893;-0.97594;ESP;ESP;Spain
Grand Haven;USGHN;Lake;accurate;43.0685;-86.22844;USA;USA;United States of America
Morehead City;USMRH;Sea;accurate;34.71673;-76.7033;USA;USA;United States of America
Morro Bay;USMJK;Sea;accurate;35.37;-120.85575;USA;USA;United States of America
Molanda;;River;accurate;2.47842;20.81603;COD;COD;Democratic Republic of the Congo
Palompon;;Sea;accurate;11.05199;124.38315;PHL;PHL;Philippines
Clarenville;CACLE;Sea;accurate;48.16012;-53.96127;;CAN;
Yorktown;USYKW;Sea;accurate;37.23805;-76.5074;;USA;
Richmond;USRIC;Sea;accurate;37.53348;-77.43917;USA;USA;United States of America
Varna;;Unknown;accurate;43.19695;27.91235;BGR;BGR;Bulgaria
Visby;SEVBY;Sea;accurate;57.62915;18.27857;SWE;SWE;Sweden
Pozzallo;ITPZL;Sea;accurate;36.71761;14.83013;ITA;ITA;Italy
Ustica;ITUST;Sea;accurate;38.7075;13.19513;;ITA;
Catanzaro;ITQCZ;Sea;accurate;38.82755;16.6299;ITA;ITA;Italy
Stralsund;DESTL;Sea;accurate;54.30568;13.10589;DEU;DEU;Germany
Hamina;FIHMN;Sea;accurate;60.5345;27.1727;FIN;FIN;Finland
Kaskinen;FIKAS;Sea;accurate;62.35493;21.22174;FIN;FIN;Finland
Brixham;GBBRX;Sea;accurate;50.39798;-3.51225;GBR;GBR;U.K. of Great Britain and Northern Ireland
Moana;ESMOA;Sea;accurate;42.2763;-8.736;ESP;ESP;Spain
Muros;ESMRS;Sea;accurate;42.77517;-9.05487;ESP;ESP;Spain
San Sebastian;ESEAS;Sea;accurate;43.32279;-1.98729;ESP;ESP;Spain
Kabumbulu;;River;accurate;-7.68127;26.79066;COD;COD;Democratic Republic of the Congo
Ankoro;;River;accurate;-6.74658;26.94994;COD;COD;Democratic Republic of the Congo
Bejaia;DZBJA;Sea;accurate;36.73953;5.07636;DZA;DZA;Algeria
Bolomba;;River;accurate;0.34752;19.22902;COD;COD;Democratic Republic of the Congo
Kenge;;River;accurate;-4.85701;16.97452;COD;COD;Democratic Republic of the Congo
Caia;;Unknown;approximate;-17.81787;35.3833;MOZ;MOZ;Mozambique
Ayamonte;ESAYA;Sea;accurate;37.21384;-7.40999;;ESP;
Otranto;ITOTO;Sea;accurate;40.14514;18.49272;;ITA;
Calvi;FRCLY;Sea;accurate;42.56303;8.75676;FRA;FRA;France
Sidi Ifni;;Sea;accurate;29.3582;-10.19087;MAR;MAR;Morocco
Ronnskar;SEROR;Sea;accurate;64.67549;21.26328;SWE;SWE;Sweden
Joutseno;FIJOU;River;accurate;61.13393;28.46255;FIN;FIN;Finland
Kayes;;River;accurate;14.45255;-11.43904;MLI;MLI;Mali
Maripipi;;Sea;accurate;11.7778;124.34924;PHL;PHL;Philippines
Cataingan;;Sea;accurate;12.00356;124.00048;PHL;PHL;Philippines
Paramaribo;SRPBM;Sea;accurate;5.81283;-55.16633;SUR;SUR;Suriname
Kiri;;River;accurate;-1.50599;18.91375;COD;COD;Democratic Republic of the Congo
Tripoli;LYTIP;Sea;accurate;32.90412;13.18102;LBY;LBY;Libya
Manila;PHMNL;Sea;accurate;14.59804;120.96049;PHL;PHL;Philippines
Bikoro;;Lake;accurate;-0.73528;18.12241;COD;COD;Democratic Republic of the Congo
Pilar;;Sea;accurate;12.92281;123.67587;;PHL;
Glace Bay;CAGLB;Sea;accurate;46.19842;-59.95021;CAN;CAN;Canada
Penuba;IDPNG;Unknown;approximate;-0.31587;104.46529;IDN;IDN;Indonesia
Escanaba;USESC;Lake;accurate;45.75213;-87.06275;USA;USA;United States of America
Duluth;USDLH;Lake;accurate;46.76653;-92.10966;USA;USA;United States of America
Silver Bay;USSIB;Lake;accurate;47.28769;-91.25468;USA;USA;United States of America
Algoma;USAMZ;Lake;accurate;44.60794;-87.43377;USA;USA;United States of America
Petoskey;USPET;Lake;accurate;45.37636;-84.95923;;USA;
Bilili;;River;accurate;-4.36892;18.40914;COD;COD;Democratic Republic of the Congo
Burin;CABUI;Sea;accurate;47.03911;-55.1633;;CAN;
Mompanga;;River;approximate;0.91714;20.47071;COD;COD;Democratic Republic of the Congo
Lokolenge;;River;approximate;1.21149;22.72872;COD;COD;Democratic Republic of the Congo
Bulungu;;River;accurate;-4.53364;18.60155;COD;COD;Democratic Republic of the Congo
Sherbrooke;CASBR;Sea;accurate;45.13428;-61.98345;CAN;CAN;Canada
Petit Goave;HTPEG;Unknown;accurate;18.43481;-72.86642;;HTI;
Kieta;PGKIE;Unknown;accurate;-6.21827;155.63831;;PNG;
Antalaha;MGANM;Sea;accurate;-14.90111;50.28237;MDG;MDG;Madagascar
North Bend;USOTH;Sea;accurate;43.41194;-124.22106;USA;USA;United States of America
Cheticamp;CACHT;Sea;accurate;46.63785;-61.00811;CAN;CAN;Canada
Quebec;CAQUE;Sea;accurate;46.81966;-71.21389;CAN;CAN;Canada
Grand Bank;CAGRB;Sea;accurate;47.10134;-55.75185;CAN;CAN;Canada
Churchill;CACHV;Sea;accurate;58.77726;-94.18732;CAN;CAN;Canada
Nome;USOME;Sea;accurate;64.50146;-165.43043;USA;USA;United States of America
Orange;USORG;Sea;accurate;30.0828;-93.73346;USA;USA;United States of America
Burlington;USBTV;Sea;accurate;40.07702;-74.88038;USA;USA;United States of America
Port Jefferson;USPTJ;Sea;accurate;40.94747;-73.06954;USA;USA;United States of America
Saugerties;USSUV;Sea;accurate;42.06994;-73.944;USA;USA;United States of America
Ottawa;CAOTT;Sea;accurate;45.4208;-75.70934;CAN;CAN;Canada
New Glasgow;CANGL;Sea;accurate;45.59007;-62.64548;CAN;CAN;Canada
Pictou;CAPTO;Sea;accurate;45.67535;-62.7063;CAN;CAN;Canada
Kelso;USKLS;Sea;accurate;46.10583;-122.88979;USA;USA;United States of America
Marystown;CAMTN;Sea;accurate;47.16503;-55.14968;CAN;CAN;Canada
Galveston;USGLS;Sea;accurate;29.28048;-94.83932;USA;USA;United States of America
Marrero;USMAR;Sea;accurate;29.90524;-90.1047;USA;USA;United States of America
Salisbury;USSLS;Sea;accurate;38.36441;-75.60712;USA;USA;United States of America
Hoboken;USHOB;Sea;accurate;40.73473;-74.02732;USA;USA;United States of America
Wareham;USWMV;Sea;accurate;41.75209;-70.70907;;USA;
Prescott;CAPRE;Sea;accurate;44.70897;-75.51267;;CAN;
Sheet Harbour;CASHH;Sea;accurate;44.91653;-62.52552;CAN;CAN;Canada
Souris;CASOU;Sea;accurate;46.34964;-62.25084;CAN;CAN;Canada
Bay Roberts;CABYR;Sea;accurate;47.59181;-53.26656;;CAN;
Orcas;USXJY;Sea;accurate;48.59786;-122.9436;;USA;
Botwood;CABWD;Sea;accurate;49.15195;-55.34141;CAN;CAN;Canada
Lomond;CALMD;Sea;approximate;49.46068;-57.75968;;CAN;
Kitimat;CAKTM;Sea;accurate;54.00396;-128.68922;CAN;CAN;Canada
Akutan;USAKU;Sea;accurate;54.13226;-165.78476;USA;USA;United States of America
Nobeoka;JPNOB;Sea;accurate;32.59398;131.70249;JPN;JPN;Japan
Kastrup;DKKTP;Sea;accurate;55.67456;12.63376;DNK;DNK;Denmark
Itea;GRITA;Sea;accurate;38.43203;22.42307;GRC;GRC;Greece
Portoferraio;ITPFE;Sea;accurate;42.81283;10.32185;;ITA;
Deauville;FRDOL;Sea;accurate;49.36254;0.07532;FRA;FRA;France
Bar;YUBAR;Sea;accurate;42.08546;19.08775;MNE;MNE;Montenegro
Norderney;DENRD;Sea;accurate;53.70489;7.16597;;DEU;
Farsund;NOFAN;Sea;accurate;58.08544;6.79343;NOR;NOR;Norway
Lillesand;NOLIL;Sea;accurate;58.24714;8.38357;NOR;NOR;Norway
Izon;FRIZO;Sea;accurate;44.93533;-0.36;FRA;FRA;France
Luderitz;NALUD;Sea;accurate;-26.64406;15.15205;NAM;NAM;Namibia
Ambriz;AOAZZ;Sea;accurate;-7.83618;13.10454;;AGO;
Onahama;JPONA;Sea;accurate;36.93979;140.89107;JPN;JPN;Japan
Paranagua;BRPNG;Sea;accurate;-25.50136;-48.5013;;BRA;
Skagastrond;ISSKA;Sea;accurate;65.8256;-20.31867;ISL;ISL;Iceland
Harwich;GBHRW;Sea;accurate;51.94716;1.25422;GBR;GBR;U.K. of Great Britain and Northern Ireland
Cannes;FRCEQ;Sea;accurate;43.55101;7.01445;;FRA;
Koper;SIKOP;Sea;accurate;45.5556;13.73379;;SVN;
Porto Santo Stefano;ITPSS;Sea;accurate;42.43532;11.12104;ITA;ITA;Italy
Pula;HRPUY;Sea;accurate;44.87588;13.84768;HRV;HRV;Croatia
Pontrieux;FRPOX;Sea;accurate;48.70416;-3.16014;FRA;FRA;France
Truro;GBTRU;Sea;accurate;50.26052;-5.04653;GBR;GBR;U.K. of Great Britain and Northern Ireland
Par;GBPAR;Sea;accurate;50.35086;-4.70853;GBR;GBR;U.K. of Great Britain and Northern Ireland
Deal;GBDEX;Sea;approximate;51.22405;1.39705;GBR;GBR;U.K. of Great Britain and Northern Ireland
Cardiff;GBCDF;Sea;accurate;51.45939;-3.15709;GBR;GBR;U.K. of Great Britain and Northern Ireland
Avonmouth;GBAVO;Sea;accurate;51.50408;-2.70365;GBR;GBR;U.K. of Great Britain and Northern Ireland
Portbury;GBPRU;Sea;accurate;51.49371;-2.72632;GBR;GBR;U.K. of Great Britain and Northern Ireland
Coryton;GBCOY;Sea;accurate;51.51231;0.51447;GBR;GBR;U.K. of Great Britain and Northern Ireland
Pembroke;GBPEM;Sea;accurate;51.69515;-4.95364;GBR;GBR;U.K. of Great Britain and Northern Ireland
Dunmore East;IEDNM;Sea;accurate;52.14743;-6.9912;IRL;IRL;Ireland
Groningen;NLGRQ;Sea;accurate;53.22066;6.59487;NLD;NLD;Netherlands
Ghazaouet;DZGHA;Sea;accurate;35.10098;-1.86159;DZA;DZA;Algeria
Al Hoceima;MAAHU;Sea;accurate;35.24741;-3.92559;MAR;MAR;Morocco
Skikda;DZSKI;Sea;accurate;36.88518;6.91165;DZA;DZA;Algeria
Soma;JPSMA;Sea;accurate;37.83572;140.95718;JPN;JPN;Japan
Zanzibar;TZZNZ;Sea;accurate;-6.15707;39.19235;TZA;TZA;United Republic of Tanzania
Phuket;THHKT;Sea;accurate;7.87304;98.41471;THA;THA;Thailand
Phangnga;THPHA;River;accurate;8.39961;98.51346;THA;THA;Thailand
Chanthaburi;THCHA;River;approximate;12.60208;102.11342;THA;THA;Thailand
Port Chalmers;NZPOE;Sea;accurate;-45.81224;170.62442;;NZL;
Stanley;AUSTA;Sea;accurate;-40.7664;145.29764;AUS;AUS;Australia
Beachport;AUBCH;Sea;accurate;-37.48074;140.01314;AUS;AUS;Australia
Port Kembla;AUPKL;Sea;accurate;-34.46974;150.89456;AUS;AUS;Australia
Tome;CLTOM;Sea;accurate;-36.61919;-72.95899;CHL;CHL;Chile
Los Vilos;CLLOS;Sea;accurate;-31.90908;-71.50971;CHL;CHL;Chile
Tramandai;BRTRM;Sea;accurate;-29.98563;-50.14362;BRA;BRA;Brazil
Imbituba;BRIBB;Sea;accurate;-28.22984;-48.64935;BRA;BRA;Brazil
Urangan;AUURN;Sea;accurate;-25.28393;152.90265;AUS;AUS;Australia
Pisagua;CLPIS;Sea;accurate;-19.59414;-70.20964;CHL;CHL;Chile
Vaitape;PFVAI;Sea;accurate;-16.50595;-151.75267;PYF;PYF;French Polynesia
Tsuruga;JPTRG;Sea;accurate;35.65827;136.06499;JPN;JPN;Japan
Wallace Bay;MYWAL;Sea;accurate;4.24747;117.66116;MYS;MYS;Malaysia
Yangjiang;CNYJI;Sea;approximate;21.8331;111.95178;CHN;CHN;China
Okha;INOKH;Sea;accurate;22.47321;69.08175;;IND;
Yantian;CNYTN;Sea;accurate;22.58089;114.26322;CHN;CHN;China
Sakito;JPSTO;Sea;accurate;33.02102;129.56721;JPN;JPN;Japan
Takuma;JPTKM;Sea;accurate;34.22592;133.67176;JPN;JPN;Japan
Marugame;JPMAR;Sea;accurate;34.28827;133.78;JPN;JPN;Japan
Yokosuka;JPYOS;Sea;accurate;35.28697;139.66181;JPN;JPN;Japan
Hachinohe;JPHHE;Sea;accurate;40.54525;141.5049;JPN;JPN;Japan
Hereke;TRHER;Sea;accurate;40.78566;29.62055;;TUR;
Ayancik;TRAYA;Sea;accurate;41.94791;34.58465;TUR;TUR;Turkey
Mori;JPMOR;Sea;accurate;42.1079;140.58299;JPN;JPN;Japan
Kushiro;JPKUH;Sea;accurate;42.98314;144.37109;JPN;JPN;Japan
Kaitangata;NZKTG;Sea;accurate;-46.28637;169.84385;NZL;NZL;New Zealand
Timaru;NZTIU;Sea;accurate;-44.38903;171.25537;;NZL;
Lyttelton;NZLYT;Sea;accurate;-43.60722;172.72449;;NZL;
Christchurch;NZCHC;Sea;accurate;-43.55791;172.70468;NZL;NZL;New Zealand
Necochea;ARNEC;Sea;accurate;-38.57665;-58.7112;ARG;ARG;Argentina
Tauranga;NZTRG;Sea;accurate;-37.65752;176.18293;NZL;NZL;New Zealand
Dargaville;NZDGR;Sea;accurate;-35.94185;173.87059;NZL;NZL;New Zealand
Busselton;AUBUS;Sea;approximate;-33.64839;115.34872;AUS;AUS;Australia
Bundaberg;AUBDB;Sea;accurate;-24.7726;152.38567;AUS;AUS;Australia
Sibu;MYSBW;Sea;accurate;2.2882;111.82375;MYS;MYS;Malaysia
Jolo;PHJOL;Sea;accurate;6.05276;120.99972;PHL;PHL;Philippines
Tumpat;MYTUM;Sea;accurate;6.2007;102.16879;MYS;MYS;Malaysia
Fayid;EGFAD;Sea;accurate;30.34047;32.30254;EGY;EGY;Egypt
Miike;JPMII;Sea;accurate;33.01707;130.42242;JPN;JPN;Japan
Uwajima;JPUWA;Sea;accurate;33.22906;132.55234;JPN;JPN;Japan
Innoshima;JPINS;Sea;accurate;34.2788;133.18556;JPN;JPN;Japan
Itozaki;JPITO;Sea;accurate;34.39433;133.08974;JPN;JPN;Japan
Townsville;AUTSV;Sea;accurate;-19.25697;146.83102;AUS;AUS;Australia
Seletar;SGSLT;Sea;accurate;1.42132;103.89181;;SGP;
La Estacada;VELEC;Sea;accurate;10.71037;-71.52781;VEN;VEN;Venezuela
Jose Panganiban;PHJPM;Sea;accurate;14.28499;122.69469;PHL;PHL;Philippines
Lingayen;PHLIN;Sea;accurate;16.01746;120.22847;PHL;PHL;Philippines
Bhavnagar;INBHU;Sea;accurate;21.75977;72.23132;IND;IND;India
Pusan;KRPUS;Sea;accurate;35.1243;129.06014;KOR;KOR;Republic of Korea
Wonsan;KPWON;Sea;accurate;39.15952;127.44446;;PRK;
Noshiro;JPNSR;Sea;approximate;40.2104;140.0079;JPN;JPN;Japan
Yingkou;CNYIK;Sea;accurate;40.69829;122.2706;CHN;CHN;China
Tuzla;TRTUZ;Sea;accurate;40.83666;29.28351;TUR;TUR;Turkey
Korsakov;RUKOR;Sea;accurate;46.62973;142.76152;RUS;RUS;Russian Federation
Turku;FITKU;Sea;accurate;60.44253;22.2193;FIN;FIN;Finland
Wuhan;CNWUH;River;accurate;30.58048;114.29363;CHN;CHN;China
Canakkale;TRCKZ;Sea;accurate;40.15029;26.40266;;TUR;
Buenos Aires;ARBUE;Sea;accurate;-34.59058;-58.37344;ARG;ARG;Argentina
Farafangana;MGRVA;Sea;accurate;-22.81379;47.83071;MDG;MDG;Madagascar
Valparaiso;CLVAP;Sea;accurate;-33.03935;-71.62628;CHL;CHL;Chile
Tubarao;BRTUB;Sea;accurate;-20.28376;-40.2422;BRA;BRA;Brazil
Belem;BRBEL;Sea;accurate;-1.4405;-48.49365;BRA;BRA;Brazil
Acajutla;SVAQJ;Sea;accurate;13.57453;-89.8338;SLV;SLV;El Salvador
Freeport;BSFPO;Sea;accurate;26.51869;-78.76857;BHS;BHS;Bahamas
Puerto Cabello;VEPBL;Sea;accurate;10.47301;-68.00372;VEN;VEN;Venezuela
Topolobampo;MXTPB;Sea;accurate;25.59076;-109.06023;;MEX;
Quintero;CLQTV;Sea;accurate;-32.78127;-71.52718;CHL;CHL;Chile
Guayacan;CLGYC;Sea;accurate;-29.96873;-71.34916;CHL;CHL;Chile
Taltal;CLTTC;Sea;accurate;-25.40792;-70.48943;CHL;CHL;Chile
Punta Cardon;VEPCN;Sea;accurate;11.62577;-70.23025;VEN;VEN;Venezuela
Ayvalik;TRAYV;Sea;accurate;39.32862;26.69751;TUR;TUR;Turkey
Alvarado;MXAVD;Sea;accurate;18.77027;-95.7679;MEX;MEX;Mexico
Santa Rosalia;MXSRL;Sea;accurate;27.34135;-112.26646;MEX;MEX;Mexico
Inebolu;TRINE;Sea;accurate;41.9785;33.76605;TUR;TUR;Turkey
Talara;PETYL;Sea;accurate;-4.57655;-81.28203;PER;PER;Peru
Nieuw Nickerie;SRICK;Sea;accurate;5.94831;-56.99537;SUR;SUR;Suriname
Bridgetown;BBBGI;Sea;accurate;13.09953;-59.625;;BRB;
Ponce;PRPSE;Sea;accurate;17.97098;-66.61435;PRI;PRI;Puerto Rico
Guayanilla;PRGUY;Sea;accurate;18.00203;-66.7589;;PRI;
Dumai;IDDUM;Sea;accurate;1.6861;101.44849;;IDN;
Waingapu;IDWGP;Sea;accurate;-9.64121;120.24987;IDN;IDN;Indonesia
Cienfuegos;CUCFG;Sea;accurate;22.14121;-80.45628;CUB;CUB;Cuba
Puerto Sandino;NIPSN;Sea;accurate;12.2018;-86.76354;NIC;NIC;Nicaragua
Nanchital;MXNAN;Sea;accurate;18.07357;-94.41357;MEX;MEX;Mexico
Ramallo;ARRAM;River;accurate;-33.47639;-59.99797;ARG;ARG;Argentina
Hambantota;LKHBA;Sea;accurate;6.12843;81.09534;LKA;LKA;Sri Lanka
Aguadulce;PAAGD;Sea;accurate;8.24315;-80.49807;PAN;PAN;Panama
Kourou;GFQKR;Sea;accurate;5.14879;-52.64379;GUF;GUF;French Guiana
Champerico;GTCHR;Sea;accurate;14.2954;-91.91519;GTM;GTM;Guatemala
Pago Pago;ASPPG;Sea;accurate;-14.27541;-170.69365;ASM;ASM;American Samoa
Port Said;EGPSD;Sea;accurate;31.24333;32.3009;;EGY;
Lae;PGLAE;Sea;accurate;-6.73497;146.9797;PNG;PNG;Papua New Guinea
Duran;ECDUN;Sea;accurate;-2.19278;-79.83822;ECU;ECU;Ecuador
Hadera;ILHAD;Sea;accurate;32.46712;34.88576;;ISR;
Hamburg;DEHAM;Sea;accurate;53.53577;9.98743;DEU;DEU;Germany
Norddeich;DENOE;Sea;accurate;53.62578;7.15835;;DEU;
Goole;GBGOO;Sea;accurate;53.7008;-0.872;GBR;GBR;U.K. of Great Britain and Northern Ireland
Drogheda;IEDRO;Sea;accurate;53.71679;-6.34003;IRL;IRL;Ireland
Whitby;GBWTB;Sea;accurate;54.48999;-0.61444;GBR;GBR;U.K. of Great Britain and Northern Ireland
Nysted;DKNTD;Sea;accurate;54.66664;11.72627;DNK;DNK;Denmark
Kerteminde;DKKTD;Sea;accurate;55.45206;10.66497;DNK;DNK;Denmark
Kolding;DKKOL;Sea;accurate;55.4907;9.49588;DNK;DNK;Denmark
Old Kilpatrick;GBOKK;Sea;accurate;55.92998;-4.48172;GBR;GBR;U.K. of Great Britain and Northern Ireland
Ardrishaig;GBASG;Sea;accurate;56.01384;-5.44685;GBR;GBR;U.K. of Great Britain and Northern Ireland
Malpe;INMAL;Sea;accurate;13.34653;74.6949;IND;IND;India
North Berwick;GBNBW;Sea;accurate;56.06015;-2.71775;GBR;GBR;U.K. of Great Britain and Northern Ireland
Randers;DKRAN;Sea;accurate;56.46012;10.05017;DNK;DNK;Denmark
Mariager;DKMRR;Sea;accurate;56.65358;9.98345;DNK;DNK;Denmark
Strangnas;SESTQ;Sea;accurate;59.3785;17.02617;SWE;SWE;Sweden
Lysaker;NOLYS;Sea;accurate;59.91188;10.64228;NOR;NOR;Norway
Sandarne;SESAE;Sea;accurate;61.26021;17.1706;SWE;SWE;Sweden
Haukipudas;FIHAU;Sea;accurate;65.21231;25.29095;FIN;FIN;Finland
Namibe;AOMSZ;Sea;accurate;-15.19544;12.13261;AGO;AGO;Angola
Sheboygan;USSBZ;Lake;accurate;43.75394;-87.70174;USA;USA;United States of America
East London;ZAELS;Sea;accurate;-33.02485;27.90853;ZAF;ZAF, MWI, ZWE;South Africa
Otake;;Sea;accurate;34.21883;132.24054;JPN;JPN;Japan
Honolulu;USHNL;Sea;accurate;21.31196;-157.87272;;USA;
Santa Marta;COSMR;Sea;accurate;11.24916;-74.21571;;COL;
Jakarta;IDJKT;Sea;accurate;-6.10434;106.80256;;IDN;
Tanjung Priok;IDTPP;Sea;accurate;-6.10492;106.87615;IDN;IDN;Indonesia
Kupang;IDKOE;Sea;accurate;-10.15375;123.59051;;IDN;
Bitung;IDBIT;Sea;accurate;1.4389;125.19403;;IDN;
Puna;ECPUN;Sea;accurate;-2.73513;-79.91251;ECU;ECU;Ecuador
Banes;CUBAN;Sea;accurate;20.91922;-75.70484;CUB;CUB;Cuba
Cabo Blanco;PECAB;Sea;accurate;-4.25051;-81.2306;PER;PER;Peru
Port Tampa;USPOT;Sea;accurate;27.92635;-82.44533;;USA;
Apalachicola;USAAF;Sea;accurate;29.72355;-84.98267;;USA;
El Segundo;USELS;Sea;accurate;33.91128;-118.42607;;USA;
Ngali;;River;accurate;-2.42926;19.31629;COD;COD;Democratic Republic of the Congo
Coron;;Sea;accurate;11.99246;120.21227;;PHL;
Maasin;;Sea;accurate;10.1321;124.84119;PHL;PHL;Philippines
Asau;;Sea;accurate;-13.51245;-172.6313;WSM;WSM;Samoa
Bandundu;;River;accurate;-3.30989;17.36589;COD;COD;Democratic Republic of the Congo
Ubay;;Sea;accurate;10.0592;124.47209;PHL;PHL;Philippines
Davant;USDVT;Sea;approximate;29.6071;-89.8482;USA;USA;United States of America
Pasadena;USPSD;Sea;accurate;29.72073;-95.2169;USA;USA;United States of America
Cameron;USCXM;Sea;accurate;29.7929;-93.32327;USA;USA;United States of America
Everett;USEVT;Sea;accurate;47.99439;-122.21452;USA;USA;United States of America
Hopewell;USHPW;Sea;accurate;37.30712;-77.26764;USA;USA;United States of America
San Mateo;USSMK;Sea;accurate;37.58615;-122.31829;USA;USA;United States of America
San Carlos;;Sea;accurate;10.47904;123.42024;;PHL;
Alexandria;;Unknown;accurate;38.80531;-77.03909;USA;USA;United States of America
Hungnam;;Unknown;accurate;39.83086;127.61872;PRK;PRK;Dem People's Rep of Korea
Antibes;FRANT;Sea;accurate;43.58743;7.12206;FRA;FRA;France
Wallhamn;SEWAL;Sea;accurate;58.01242;11.70032;SWE;SWE;Sweden
Skiathos;GRJSI;Sea;accurate;39.16343;23.49153;GRC;GRC;Greece
Sagunto;ESSAG;Sea;accurate;39.6477;-0.21832;ESP;ESP;Spain
Biarritz;FRBIQ;Sea;accurate;43.46666;-1.57459;FRA;FRA;France
Forsmark;SEFOR;Sea;approximate;60.40559;18.18332;SWE;SWE;Sweden
Mongstad;NOMON;Sea;accurate;60.81045;5.01857;NOR;NOR;Norway
Torquay;GBTOR;Sea;accurate;50.46141;-3.52712;GBR;GBR;U.K. of Great Britain and Northern Ireland
Parga;GRPAR;Sea;approximate;39.28813;20.3883;GRC;GRC;Greece
Douarnenez;FRDRZ;Sea;accurate;48.09639;-4.33861;FRA;FRA;France
Paris;FRPAR;Sea;accurate;48.86431;2.31492;FRA;FRA;France
Faro;PTFAO;Sea;accurate;37.01511;-7.93553;PRT;PRT;Portugal
Portimao;PTPRM;Sea;accurate;37.12787;-8.53039;PRT;PRT;Portugal
Denia;ESDNA;Sea;accurate;38.84353;0.11083;ESP;ESP;Spain
Keramoti;GRKER;Sea;accurate;40.85758;24.7032;GRC;GRC;Greece
Bordeaux;FRBOD;Sea;accurate;44.84194;-0.56907;FRA;FRA;France
Lyngor;NOLNG;Sea;accurate;58.6446;9.12519;NOR;NOR;Norway
Otterbacken;SEOTT;Sea;accurate;58.95018;14.03494;SWE;SWE;Sweden
Enkoping;SEENK;Sea;accurate;59.5907;17.07122;SWE;SWE;Sweden
Norrtalje;SENOE;Sea;accurate;59.75486;18.72569;SWE;SWE;Sweden
Yangambi;;River;approximate;0.75781;24.47932;COD;COD;Democratic Republic of the Congo
Lowa;;River;accurate;-1.39476;25.81225;COD;COD;Democratic Republic of the Congo
Kabimba;;Lake;accurate;-5.55584;29.34148;COD;COD;Democratic Republic of the Congo
Lappeenranta;FILPP;River;accurate;61.06874;28.18524;FIN;FIN;Finland
Selaata;;Sea;accurate;34.28059;35.65501;;LBN;
Amirabad;;Sea;accurate;36.84111;53.31111;IRN;IRN;Iran  (Islamic Republic of)
Ende;;Sea;accurate;-8.84538;121.64313;IDN;IDN;Indonesia
Thilawa;;River;accurate;16.66539;96.24981;MMR;MMR;Myanmar
Lafiteau;;Sea;accurate;18.69607;-72.36365;;HTI;
Segou;;River;accurate;13.4504;-6.26519;MLI;MLI;Mali
Diafarabe;;River;accurate;14.1373;-5.01532;MLI;MLI;Mali
Dire;;River;accurate;16.2628;-3.3911;MLI;MLI;Mali
Mahajanga;MGMJN;Sea;accurate;-15.72557;46.31543;MDG;MDG;Madagascar
Appleton;USATW;Lake;accurate;44.25639;-88.40024;USA;USA;United States of America
Davao;PHBIY;Sea;accurate;7.09777;125.64773;;PHL;
Larena;;Sea;accurate;9.24938;123.5926;PHL;PHL;Philippines
Kopmanholmen;SEKMH;Sea;accurate;63.16975;18.5928;SWE;SWE;Sweden
Andranomahitsy;;River;accurate;-20.92599;48.44334;MDG;MDG;Madagascar
Marohita;;River;accurate;-21.41381;48.27803;MDG;MDG;Madagascar
Marofinaritra;;River;accurate;-18.32038;49.30446;MDG;MDG;Madagascar
Nosy Varika;;River;accurate;-20.58106;48.5328;MDG;MDG;Madagascar
Ambahy;;River;accurate;-20.77412;48.47793;MDG;MDG;Madagascar
Limassol;CYLMS;Sea;accurate;34.6697;33.03661;CYP;CYP;Cyprus
Gwadar;PKGWD;Sea;accurate;25.11313;62.33025;PAK;PAK;Pakistan
Basoko;;River;accurate;1.22882;23.60569;COD;COD;Democratic Republic of the Congo
Ahus;SEAHU;Sea;accurate;55.92858;14.32414;SWE;SWE;Sweden
Lewiston;USLUT;Lake;accurate;43.17451;-79.04913;;USA;
Hamilton;CAHAM;Lake;accurate;43.27388;-79.82898;CAN;CAN;Canada
Yalusaka;;River;accurate;-0.95585;22.97496;COD;COD;Democratic Republic of the Congo
Lomami;;River;unknown;-1.82278;22.63543;COD;COD;Democratic Republic of the Congo
Waka;;River;accurate;-0.94079;20.19136;COD;COD;Democratic Republic of the Congo
Waka;;River;accurate;1.00412;20.21208;COD;COD;Democratic Republic of the Congo
Wewak;PGWWK;Unknown;accurate;-3.57221;143.64336;;PNG;
Amamapare;IDAMA;Unknown;accurate;-4.828;136.83729;;IDN;
